City,Lat,Lng,Max Temp,Humidity,Clouds,Wind Speed,Country,Date
Ponta do Sol,32.6667,-17.1,69.8,60,20,6.91,PT,1620471614
Rikitea,-23.1203,-134.9692,78.12,78,17,10.2,PF,1620471614
Qaanaaq,77.484,-69.3632,22.77,93,100,2.37,GL,1620471615
San Cristobal,7.7669,-72.225,65.23,96,100,2.28,VE,1620471615
Rome,43.2128,-75.4557,43.0,87,90,7.18,US,1620471615
Cherskiy,68.75,161.3,27.43,84,100,3.98,RU,1620471615
Kapaa,22.0752,-159.319,75.2,78,40,20.71,US,1620471486
Hermanus,-34.4187,19.2345,66.0,82,99,5.01,ZA,1620471616
Planaltina,-15.4528,-47.6142,69.8,64,75,5.75,BR,1620471616
Lompoc,34.6391,-120.4579,46.4,81,11,8.86,US,1620471326
Tuktoyaktuk,69.4541,-133.0374,17.44,96,100,9.22,CA,1620471617
Atuona,-9.8,-139.0333,79.52,78,35,17.76,PF,1620471617
Ribeira Grande,38.5167,-28.7,64.4,77,40,14.97,PT,1620471618
Maykor,59.0059,55.88,59.86,62,100,5.84,RU,1620471618
Katsuura,35.1333,140.3,69.01,72,100,8.01,JP,1620471618
Marawi,7.9986,124.2928,78.01,92,100,1.12,PH,1620471619
Carnarvon,-24.8667,113.6333,71.6,68,0,13.8,AU,1620471619
Albany,42.6001,-73.9662,48.0,52,100,3.27,US,1620471614
The Valley,18.217,-63.0578,79.0,73,20,8.05,AI,1620471619
Nueva Guinea,11.6876,-84.4562,72.23,93,85,5.48,NI,1620471620
Busselton,-33.65,115.3333,57.99,81,34,7.05,AU,1620471620
Port Alfred,-33.5906,26.891,65.68,71,82,24.56,ZA,1620471620
Baie-Comeau,49.2168,-68.1489,35.6,93,90,10.36,CA,1620471621
Jamestown,42.097,-79.2353,37.99,100,90,5.75,US,1620471323
Ushuaia,-54.8,-68.3,41.0,81,0,2.55,AR,1620471621
Butaritari,3.0707,172.7902,82.49,78,26,13.11,KI,1620471621
Nantucket,41.2835,-70.0995,46.4,76,40,18.41,US,1620471622
Pacaembu,-21.5622,-51.2606,57.97,87,56,9.73,BR,1620471622
Mgandu,-5.95,34.1333,68.47,75,100,5.93,TZ,1620471622
Laguna,38.421,-121.4238,64.4,24,1,16.11,US,1620471623
Torbay,47.6666,-52.7314,39.99,100,90,6.91,CA,1620471623
Mataura,-46.1927,168.8643,57.99,76,99,4.0,NZ,1620471624
Punta Arenas,-53.15,-70.9167,37.4,93,0,3.44,CL,1620471609
Mahébourg,-20.4081,57.7,80.6,57,40,11.5,MU,1620471624
Port Elizabeth,-33.918,25.5701,62.6,94,75,27.63,ZA,1620471624
Pisco,-13.7,-76.2167,62.6,88,75,3.44,PE,1620471625
Airai,-8.9266,125.4092,60.76,96,97,3.42,TL,1620471625
Tepoztlán,18.9833,-99.1,57.2,72,40,3.44,MX,1620471626
North Bend,43.4065,-124.2243,42.8,93,1,5.75,US,1620471626
Yellowknife,62.456,-114.3525,35.6,60,20,10.36,CA,1620471607
Velyka Lepetykha,47.1757,33.9436,60.67,77,100,17.34,UA,1620471626
Saskylakh,71.9167,114.0833,33.87,99,100,5.39,RU,1620471627
Provideniya,64.3833,-173.3,31.66,81,4,2.64,RU,1620471627
Hobart,-42.8794,147.3294,51.8,58,20,10.36,AU,1620471603
Puerto Ayora,-0.7393,-90.3518,75.0,93,9,7.0,EC,1620471628
Verāval,20.9,70.3667,89.33,60,91,17.25,IN,1620471628
Vallenar,-28.5708,-70.7581,51.82,79,34,0.56,CL,1620471540
Sitka,57.0531,-135.33,48.2,81,90,4.61,US,1620471629
Sinnamary,5.3833,-52.95,79.57,84,100,11.86,GF,1620471629
Onguday,50.75,86.15,62.96,34,14,6.51,RU,1620471630
Mar del Plata,-38.0023,-57.5575,48.0,100,19,8.01,AR,1620471552
Saint George,37.1041,-113.5841,71.6,20,1,5.75,US,1620471611
Saldanha,-33.0117,17.9442,69.8,56,51,9.22,ZA,1620471630
Bredasdorp,-34.5322,20.0403,64.4,77,91,11.5,ZA,1620471631
Tiksi,71.6872,128.8694,24.98,87,89,2.64,RU,1620471631
Cabedelo,-6.9811,-34.8339,77.0,94,20,6.91,BR,1620471632
New Norfolk,-42.7826,147.0587,46.99,73,75,3.0,AU,1620471632
Yamada,39.4667,141.95,53.71,61,60,6.87,JP,1620471633
Upernavik,72.7868,-56.1549,26.17,84,99,1.92,GL,1620471633
Erice,38.037,12.5865,66.2,88,0,12.66,IT,1620471634
Geraldton,-28.7667,114.6,66.2,68,4,11.5,AU,1620471634
San Quintín,30.4833,-115.95,58.66,78,98,8.77,MX,1620471635
Tasiilaq,65.6145,-37.6368,30.2,80,75,5.75,GL,1620471635
Gravdal,68.1214,13.5031,35.6,100,75,2.3,NO,1620471636
Cape Town,-33.9258,18.4232,69.01,64,75,9.22,ZA,1620471383
Arraial do Cabo,-22.9661,-42.0278,71.6,88,75,6.91,BR,1620471636
Hilo,19.7297,-155.09,73.4,78,90,5.75,US,1620471160
Nuuk,64.1835,-51.7216,32.0,93,75,5.75,GL,1620471634
Umm Hājar,13.2954,19.6966,95.0,31,99,4.83,TD,1620471637
Bilma,18.6853,12.9164,105.96,7,3,7.31,NE,1620471637
Progreso,21.2833,-89.6667,77.0,83,75,10.36,MX,1620471637
Bariloche,-41.1456,-71.3082,37.4,93,75,5.75,AR,1620471638
Lüderitz,-26.6481,15.1594,74.62,40,0,21.34,NA,1620471638
Saint-Philippe,-21.3585,55.7679,78.8,61,90,12.66,RE,1620471639
Ambilobe,-13.2,49.05,85.17,59,76,2.93,MG,1620471639
Saint Paul Harbor,57.79,-152.4072,41.0,87,90,19.57,US,1620471639
Talnakh,69.4865,88.3972,34.18,99,100,2.66,RU,1620471640
Linares,-35.85,-71.6,50.52,89,58,1.72,CL,1620471639
Constitución,-35.3333,-72.4167,53.87,89,80,5.97,CL,1620471356
Husavik,66.0449,-17.3389,33.8,64,75,4.61,IS,1620471640
Nikolskoye,59.7035,30.7861,39.2,87,90,13.42,RU,1620471640
Pilar,-9.5972,-35.9567,75.2,100,20,4.61,BR,1620471641
Doka,13.5167,35.7667,82.29,48,100,7.11,SD,1620471641
Iquitos,-3.7481,-73.2472,73.4,94,90,8.05,PE,1620471641
Praia,14.9215,-23.5087,75.2,64,75,23.02,CV,1620471378
Mayskiy,47.6931,40.1025,77.0,33,20,15.66,RU,1620471642
Kamaishi,39.2667,141.8833,62.6,45,0,4.61,JP,1620471642
Sambava,-14.2667,50.1667,80.69,69,30,13.47,MG,1620471643
Ouro Fino,-22.2831,-46.3692,59.79,85,12,5.14,BR,1620471643
Ucluelet,48.9329,-125.5528,46.0,85,100,3.98,CA,1620471608
Natal,-5.795,-35.2094,77.0,88,20,9.22,BR,1620471643
Tambo,-14.8,-73.9167,35.51,80,100,3.8,PE,1620471644
Shingū,33.7333,135.9833,66.2,88,90,9.22,JP,1620471644
Yārāda,17.65,83.2667,93.2,52,20,9.22,IN,1620471644
Cabo San Lucas,22.8909,-109.9124,75.0,42,0,9.51,MX,1620471556
Faanui,-16.4833,-151.75,80.31,74,96,5.14,PF,1620471645
Esim,4.8699,-2.2405,83.17,73,100,5.41,GH,1620471645
Codrington,-38.2667,141.9667,52.83,78,58,5.39,AU,1620471645
Pangnirtung,66.1451,-65.7125,36.46,92,100,1.16,CA,1620471646
Omboué,-1.5746,9.2618,83.43,72,100,6.04,GA,1620471646
Klaksvík,62.2266,-6.589,41.0,56,20,11.5,FO,1620471646
Wilkie,52.4168,-108.7014,42.8,45,90,20.71,CA,1620471647
Luganville,-15.5333,167.1667,80.62,83,100,14.27,VU,1620471647
Hamilton,39.1834,-84.5333,37.99,81,1,8.05,US,1620471410
Bojnourd,37.4747,57.329,60.8,77,75,6.91,IR,1620471647
Banjar,-8.19,114.9675,82.4,78,20,9.22,ID,1620471648
Castro,-24.7911,-50.0119,52.0,86,99,6.78,BR,1620471648
Lata,40.1629,-8.3327,75.99,49,99,7.11,PT,1620471648
George Town,5.4112,100.3354,86.0,79,20,4.61,MY,1620471649
Whitehorse,60.7161,-135.0538,42.01,70,75,12.66,CA,1620471649
San Onofre,9.7359,-75.5263,76.55,85,100,3.15,CO,1620471649
Vaini,-21.2,-175.2,75.2,69,20,12.66,TO,1620471650
Stony Plain,53.5334,-114.0021,42.8,93,90,18.41,CA,1620471611
Nome,64.5011,-165.4064,39.99,65,1,8.05,US,1620471650
Severo-Yeniseyskiy,60.3725,93.0408,34.54,97,100,1.5,RU,1620471650
Siuna,13.7332,-84.7773,75.29,72,98,3.06,NI,1620471651
Coruripe,-10.1256,-36.1756,79.92,77,42,6.08,BR,1620471651
Lavrentiya,65.5833,-171.0,18.84,95,20,6.15,RU,1620471651
Paamiut,61.994,-49.6678,33.62,67,100,5.64,GL,1620471652
Iporá,-16.4419,-51.1178,65.43,64,2,8.08,BR,1620471652
Souillac,-20.5167,57.5167,80.6,57,40,11.5,MU,1620471652
Nanfeng,23.7434,111.7959,82.26,75,85,2.59,CN,1620471653
Thinadhoo,0.5333,72.9333,85.48,67,42,5.5,MV,1620471653
Port Hardy,50.6996,-127.4199,44.6,93,90,4.21,CA,1620471653
Lensk,60.7253,114.9278,43.54,78,100,4.88,RU,1620471654
Mezen',65.8522,44.24,48.97,54,89,6.71,RU,1620471654
Barrow,71.2906,-156.7887,10.4,85,1,10.36,US,1620471654
Bluff,-46.6,168.3333,57.99,76,98,4.0,NZ,1620471655
Daru,-9.0763,143.2092,79.72,80,92,13.65,PG,1620471655
Paka,4.6374,103.4368,87.8,70,20,6.91,MY,1620471655
Douglas,41.3,-96.167,55.0,50,90,3.44,US,1620471655
Bathsheba,13.2167,-59.5167,78.8,69,20,18.41,BB,1620471656
Ribeira Brava,32.65,-17.0667,69.8,60,20,6.91,PT,1620471656
Bonavista,48.6499,-53.1147,37.4,100,100,1.14,CA,1620471656
Auki,-8.7676,160.7034,78.93,87,95,5.79,SB,1620471657
Wanaka,-44.7,169.15,54.05,95,100,4.12,NZ,1620471575
Nyimba,-14.5566,30.8149,82.35,34,7,3.27,ZM,1620471657
Kabwe,-14.4469,28.4464,76.19,30,6,6.96,ZM,1620471658
Cayenne,4.9333,-52.3333,81.0,94,90,5.75,GF,1620471658
Lárdos,36.0942,28.0157,73.4,68,20,10.36,GR,1620471658
Abbeville,50.1,1.8333,61.0,78,100,18.07,FR,1620471659
Hong Kong,22.2855,114.1577,84.0,81,11,11.01,HK,1620471455
Sangar,63.9242,127.4739,38.07,87,57,6.17,RU,1620471659
Oranjemund,-28.55,16.4333,65.52,62,0,15.77,NA,1620471659
Grand Gaube,-20.0064,57.6608,80.01,59,18,7.0,MU,1620471660
Koumac,-20.5667,164.2833,77.05,83,100,6.89,NC,1620471660
La Macarena,2.1837,-73.7849,70.72,99,100,2.64,CO,1620471660
Vila Franca do Campo,37.7167,-25.4333,62.6,77,20,14.97,PT,1620471661
Dunedin,-45.8742,170.5036,54.0,91,100,14.0,NZ,1620471661
Birao,10.2849,22.7882,93.58,36,47,6.82,CF,1620471661
Khatanga,71.9667,102.5,31.12,83,100,14.76,RU,1620471662
Hithadhoo,-0.6,73.0833,85.28,68,19,5.59,MV,1620471662
San Andrés,12.5847,-81.7006,80.6,78,40,9.22,CO,1620471614
Fort Nelson,58.8053,-122.7002,41.0,87,90,3.44,CA,1620471662
Chokurdakh,70.6333,147.9167,24.31,94,100,6.42,RU,1620471663
Bambous Virieux,-20.3428,57.7575,80.6,57,40,11.5,MU,1620471663
Meulaboh,4.1363,96.1285,82.89,75,98,3.36,ID,1620471663
Jackson,42.4165,-122.8345,44.6,65,1,3.44,US,1620471619
Laas,46.6166,10.7002,66.2,36,0,5.75,IT,1620471664
Manhush,47.0558,37.3107,64.99,100,92,5.01,UA,1620471664
Pevek,69.7008,170.3133,7.77,99,85,2.06,RU,1620471664
Cacoal,-11.4386,-61.4472,60.87,92,14,3.8,BR,1620471647
Kieta,-6.2167,155.6333,79.99,85,98,8.86,PG,1620471665
Severo-Kuril'sk,50.6789,156.125,39.47,86,94,10.02,RU,1620471665
São João da Barra,-21.6403,-41.0511,68.0,94,75,6.91,BR,1620471665
Kaoma,-14.7833,24.8,80.35,23,11,6.35,ZM,1620471666
Bayjī,34.9311,43.487,95.99,16,0,10.38,IQ,1620471666
Coyhaique,-45.5752,-72.0662,39.2,87,90,3.44,CL,1620471666
Leningradskiy,69.3833,178.4167,14.65,97,76,3.29,RU,1620471667
Avarua,-21.2078,-159.775,73.4,64,20,3.44,CK,1620471667
Shugurovo,54.5083,52.1326,63.79,47,94,3.31,RU,1620471668
Hay River,60.8156,-115.7999,39.2,56,94,8.05,CA,1620471544
Lakes Entrance,-37.8811,147.981,59.0,87,43,0.87,AU,1620471668
Kruisfontein,-34.0033,24.7314,57.33,84,100,28.32,ZA,1620471668
Zalesovo,53.9939,84.7431,63.23,46,58,10.51,RU,1620471669
Gramsh,40.8697,20.1844,69.8,40,20,9.22,AL,1620471669
Dhidhdhoo,6.8833,73.1,85.93,69,86,7.47,MV,1620471669
Dwārka,22.2394,68.9678,87.85,63,3,15.21,IN,1620471669
San Miguel,13.4833,-88.1833,76.93,83,99,1.74,SV,1620471625
Dikson,73.5069,80.5464,27.03,85,100,13.38,RU,1620471670
Manadhoo,5.7667,73.3833,85.6,67,78,5.32,MV,1620471671
Labytnangi,66.6572,66.4183,33.96,94,65,3.94,RU,1620471671
Clyde River,70.4692,-68.5914,24.8,100,90,4.61,CA,1620471518
Turukhansk,65.8167,87.9833,35.71,99,100,8.25,RU,1620471672
Tuatapere,-46.1333,167.6833,57.99,76,100,4.0,NZ,1620471673
Ancud,-41.8697,-73.8203,50.0,100,90,3.83,CL,1620471673
Isangel,-19.55,169.2667,77.61,80,100,13.69,VU,1620471674
Mendi,-6.1761,143.6513,58.33,99,100,0.29,PG,1620471674
Chui,-33.6971,-53.4616,52.36,81,23,2.51,UY,1620471675
Samarai,-10.6167,150.6667,81.46,83,41,11.86,PG,1620471675
Charters Towers,-20.1,146.2667,66.2,69,75,8.21,AU,1620471675
Qasigiannguit,68.8193,-51.1922,30.2,86,75,3.44,GL,1620471676
Maragogi,-9.0122,-35.2225,78.89,80,79,2.3,BR,1620471676
Broome,42.2506,-75.833,39.0,100,90,3.44,US,1620471676
San Jose,37.3394,-121.895,52.0,82,6,3.85,US,1620471423
Juba,4.8517,31.5825,80.08,66,100,3.49,SS,1620471537
Belmonte,-15.8631,-38.8828,77.0,83,20,4.61,BR,1620471677
Saryozek,44.3583,77.9753,73.63,36,10,12.44,KZ,1620471677
Hambantota,6.1241,81.1185,86.0,89,40,5.75,LK,1620471677
Malbork,54.0359,19.0266,51.01,60,76,15.17,PL,1620471678
Puerto Carreño,6.189,-67.4859,73.8,89,68,2.35,CO,1620471500
East London,-33.0153,27.9116,73.4,53,20,16.11,ZA,1620471678
Makakilo City,21.3469,-158.0858,75.2,64,1,8.05,US,1620471678
Maxixe,-23.8597,35.3472,78.8,57,40,5.75,MZ,1620471679
Kemijärvi,66.7131,27.4306,35.38,76,100,9.82,FI,1620471679
Lebu,-37.6167,-73.65,55.47,87,100,6.71,CL,1620471680
Kaitangata,-46.2817,169.8464,57.0,86,100,5.21,NZ,1620471680
Jalu,29.0331,21.5482,95.54,18,98,15.39,LY,1620471680
Iqaluit,63.7506,-68.5145,28.4,93,90,9.22,CA,1620471681
Necochea,-38.5473,-58.7368,42.01,94,13,5.01,AR,1620471681
Sibirskoye,53.5777,83.7577,69.8,19,0,13.42,RU,1620471681
Mackay,-21.15,149.2,68.0,77,87,4.61,AU,1620471682
Ardakān,32.31,54.0175,87.8,18,75,2.3,IR,1620471682
Ubari,26.5921,12.7805,92.34,16,83,14.32,LY,1620471682
Ha Giang,22.8333,104.9833,84.45,79,16,3.47,VN,1620471681
Bengkulu,-3.8004,102.2655,80.46,83,39,1.3,ID,1620471683
Teacapan,22.55,-105.75,70.84,77,21,3.53,MX,1620471683
Altamira,-3.2033,-52.2064,77.0,94,40,2.42,BR,1620471597
Goderich,43.7501,-81.7165,37.4,87,100,8.05,CA,1620471607
Nanortalik,60.1432,-45.2371,37.15,73,64,8.81,GL,1620471683
Alto Araguaia,-17.3147,-53.2153,62.01,74,10,6.35,BR,1620471684
Sabang,5.8933,95.3214,84.34,70,82,6.2,ID,1620471684
Aykhal,66.0,111.5,36.45,93,98,9.42,RU,1620471684
Gagino,55.2314,45.0339,58.46,58,59,11.3,RU,1620471685
Iquique,-20.2208,-70.1431,62.6,67,90,3.44,CL,1620471614
Benghazi,32.1167,20.0667,70.72,72,15,16.53,LY,1620471685
Ikwiriri,-7.9562,38.9716,83.84,50,20,4.29,TZ,1620471685
Sola,-13.8833,167.55,81.99,77,96,20.65,VU,1620471686
Xishan,27.6667,113.5,80.6,69,20,11.18,CN,1620471686
Shellbrook,53.2168,-106.4011,35.6,64,75,10.36,CA,1620471686
Kununurra,-15.7667,128.7333,69.8,64,11,3.89,AU,1620471687
Hope,33.6671,-93.5916,57.0,61,84,6.64,US,1620471687
Coquimbo,-29.9533,-71.3436,53.6,76,0,5.75,CL,1620471633
Agüimes,27.9054,-15.4461,75.2,41,40,20.71,ES,1620471688
Teberda,43.4456,41.7448,65.46,40,96,5.53,RU,1620471688
Dajal,29.5577,70.3762,106.12,9,99,5.28,PK,1620471688
Tankhoy,51.5528,105.1306,42.15,90,81,4.32,RU,1620471689
Marsh Harbour,26.5412,-77.0636,74.28,53,0,12.15,BS,1620471689
Mahanoro,-19.9,48.8,77.58,67,23,10.96,MG,1620471689
Buala,-8.145,159.5921,81.19,83,83,10.54,SB,1620471689
Sistranda,63.7256,8.834,44.6,65,20,8.05,NO,1620471690
San Fernando del Valle de Catamarca,-28.4696,-65.7852,53.01,86,39,8.23,AR,1620471653
Matriz de Camaragibe,-9.1517,-35.5333,75.2,100,20,4.61,BR,1620471690
Danville,36.586,-79.395,46.4,71,75,4.61,US,1620471656
Bhīmunipatnam,17.8833,83.4333,93.2,52,20,9.22,IN,1620471691
Nanchong,30.7951,106.0847,80.26,55,0,5.5,CN,1620471691
Resistencia,-27.4606,-58.9839,48.99,93,0,4.61,AR,1620471522
Shitanjing,39.2342,106.3439,77.22,10,67,5.61,CN,1620471691
Griffith,41.5284,-87.4237,41.0,100,1,3.33,US,1620471692
Vardø,70.3705,31.1107,37.4,87,75,18.41,NO,1620471692
Dubai,25.2582,55.3047,96.8,41,0,18.41,AE,1620471462
Acaraú,-2.8856,-40.12,79.2,84,67,10.42,BR,1620471692
Kualakapuas,-3.0091,114.3876,84.2,74,90,3.44,ID,1620471693
Thompson,55.7435,-97.8558,23.0,86,1,4.61,CA,1620471693
Huty,50.1332,35.3439,53.91,95,100,17.27,UA,1620471693
Hervey Bay,-25.2986,152.8535,71.01,83,59,9.71,AU,1620471694
Alice Springs,-23.7,133.8833,68.0,30,40,5.75,AU,1620471694
Hirara,24.8,125.2833,78.8,94,75,9.22,JP,1620471694
Riyadh,24.6877,46.7219,100.4,10,0,8.05,SA,1620471695
Iguape,-24.7081,-47.5553,67.3,82,73,8.55,BR,1620471695
Norman Wells,65.282,-126.8329,32.0,80,40,3.44,CA,1620471695
Matam,15.6175,-13.3303,99.86,8,44,11.77,SN,1620471696
Bambanglipuro,-7.95,110.2833,79.07,73,100,9.51,ID,1620471696
Davenda,53.5556,119.317,42.85,56,83,7.2,RU,1620471696
Hue,16.4667,107.6,84.2,79,20,9.22,VN,1620471620
Mount Isa,-20.7333,139.5,71.6,30,55,3.44,AU,1620471655
Longyearbyen,78.2186,15.6401,23.2,72,8,4.61,SJ,1620471697
Itarema,-2.9248,-39.9167,79.41,84,82,10.18,BR,1620471697
Nioro,13.35,-15.75,93.76,16,2,7.47,GM,1620471697
Ilulissat,69.2167,-51.1,30.2,86,75,3.44,GL,1620471698
Mehamn,71.0357,27.8492,36.07,86,90,15.73,NO,1620471698
Östersund,63.1792,14.6357,46.0,48,40,9.22,SE,1620471635
Talara,-4.5772,-81.2719,68.74,78,62,15.12,PE,1620471698
San Lazaro,18.0387,-88.6622,77.0,94,40,1.57,BZ,1620471699
Mizque,-17.941,-65.3402,51.96,93,86,1.77,BO,1620471699
Mandalgovi,45.7625,106.2708,55.67,54,97,13.8,MN,1620471699
Port Blair,11.6667,92.75,80.89,80,100,5.77,IN,1620471700
Solhan,38.9634,41.0293,78.8,31,40,4.61,TR,1620471700
Komsomolets,53.7453,62.0708,68.45,20,100,6.2,KZ,1620471700
Poço das Trincheiras,-9.3125,-37.2856,74.32,84,66,5.21,BR,1620471701
Varėna,54.2167,24.5667,51.01,42,75,14.97,LT,1620471701
Tilichiki,60.4667,166.1,27.5,95,100,6.6,RU,1620471701
Poum,-20.2333,164.0167,78.84,82,100,18.01,NC,1620471701
Fortuna,40.5982,-124.1573,42.01,100,75,4.61,US,1620471702
Baft,29.234,56.6057,71.47,24,66,13.53,IR,1620471702
Shīeli,44.1667,66.75,87.62,21,35,13.51,KZ,1620471702
Port-Gentil,-0.7193,8.7815,86.0,74,40,10.36,GA,1620471673
Aklavik,68.2191,-135.0107,23.0,100,100,6.91,CA,1620471703
Vincennes,48.85,2.4333,64.0,67,90,18.41,FR,1620471703
Yar-Sale,66.8333,70.8333,33.15,100,99,4.07,RU,1620471703
Haimen,23.1935,116.6142,91.4,55,20,8.95,CN,1620471704
Boyolangu,-8.1181,111.8935,75.51,80,20,5.5,ID,1620471704
Cocobeach,1.0002,9.5823,84.2,79,40,6.91,GA,1620471704
Maningrida,-12.0667,134.2667,78.62,70,23,8.12,AU,1620471705
Caratinga,-19.7897,-42.1392,67.82,80,16,3.33,BR,1620471559
Haines Junction,60.7522,-137.5108,30.2,93,31,1.14,CA,1620471705
Malindi,-3.2175,40.1191,86.0,74,75,23.02,KE,1620471705
Taoudenni,22.6783,-3.9836,99.59,11,0,11.99,ML,1620471706
Jönköping,57.7814,14.1562,48.2,49,20,4.61,SE,1620471706
Lagoa,39.05,-27.9833,59.23,78,100,16.4,PT,1620471706
Darhan,49.4867,105.9228,53.82,41,100,6.58,MN,1620471707
Aasiaat,68.7098,-52.8699,24.76,88,95,4.76,GL,1620471707
Kudahuvadhoo,2.6708,72.8944,85.03,68,10,2.71,MV,1620471707
Bethel,41.3712,-73.414,44.6,81,1,2.77,US,1620471706
Tashla,51.7716,52.7427,69.46,37,79,3.33,RU,1620471708
Locri,38.2414,16.2623,77.0,33,13,19.57,IT,1620471708
Tapes,-30.6733,-51.3958,53.91,83,29,4.94,BR,1620471708
Zaria,11.1113,7.7227,92.95,31,40,5.66,NG,1620471709
Beloha,-25.1667,45.05,73.78,54,46,14.88,MG,1620471709
Novoul'yanovsk,54.1496,48.3891,66.2,55,40,6.71,RU,1620471709
Beringovskiy,63.05,179.3167,27.88,86,68,7.11,RU,1620471710
Santa Cruz de Barahona,18.2085,-71.1008,75.38,80,27,2.17,DO,1620471666
Baiyin,36.5583,104.2081,78.8,8,0,4.47,CN,1620471710
Cairns,-16.9167,145.7667,73.4,73,24,5.75,AU,1620471710
Yulara,-25.2406,130.9889,69.8,64,85,5.75,AU,1620471711
Ostrovnoy,68.0531,39.5131,37.26,88,41,13.47,RU,1620471711
Caucaia,-3.7361,-38.6531,78.01,88,75,12.66,BR,1620471711
Hualmay,-11.0964,-77.6139,63.84,87,38,8.01,PE,1620471712
Namatanai,-3.6667,152.4333,81.41,78,100,8.43,PG,1620471712
Te Karaka,-38.4654,177.8679,52.77,92,99,2.98,NZ,1620471712
Laredo,27.5064,-99.5075,71.6,88,1,12.66,US,1620471608
Valparaíso,-33.0393,-71.6273,57.0,87,75,4.61,CL,1620471713
Abapó,-18.8333,-63.4667,47.14,83,27,2.19,BO,1620471713
Phulbāni,20.4667,84.2333,89.17,40,77,5.17,IN,1620471713
Mana,5.6592,-53.7767,78.08,88,100,10.92,GF,1620471714
Praia da Vitória,38.7333,-27.0667,63.0,77,75,15.32,PT,1620471714
Nakkila,61.3667,22.0,46.4,46,0,12.66,FI,1620471714
Hasaki,35.7333,140.8333,68.0,64,75,5.75,JP,1620471714
Kuraymah,18.55,31.85,106.92,11,0,8.1,SD,1620471715
Felipe Carrillo Puerto,19.5833,-88.05,70.75,98,16,0.94,MX,1620471715
Hofn,64.2539,-15.2082,35.44,52,37,17.67,IS,1620471715
Yerbogachën,61.2767,108.0108,48.36,65,90,5.64,RU,1620471716
Fredericksburg,38.3032,-77.4605,44.6,93,90,3.44,US,1620471552
Algiers,36.7525,3.042,87.8,22,0,3.44,DZ,1620471433
Sioux Lookout,50.1001,-91.917,26.6,86,20,3.44,CA,1620471716
Saint-Augustin,51.226,-58.6502,39.85,90,100,13.96,CA,1620471717
Tegul'det,57.3064,88.1667,46.31,73,100,9.86,RU,1620471717
Dahuk,36.8695,42.994,85.48,22,1,6.2,IQ,1620471717
Gao,16.6362,1.637,104.32,10,42,7.25,ML,1620471718
Timbó,-26.8233,-49.2717,57.99,74,27,1.3,BR,1620471718
Cap Malheureux,-19.9842,57.6142,80.01,59,21,7.0,MU,1620471718
Saryagash,41.4511,69.1701,87.8,29,0,6.91,KZ,1620471718
Satipo,-11.2522,-74.6386,64.13,98,86,1.1,PE,1620471719
Trat,12.5,102.5,84.99,100,97,5.79,TH,1620471719
Saint Anthony,45.0205,-93.218,39.0,69,1,3.31,US,1620471719
St. George's,12.0564,-61.7485,77.0,94,75,5.75,GD,1620471720
High Level,58.5169,-117.136,44.6,76,90,12.66,CA,1620471720
Huarmey,-10.0681,-78.1522,64.71,87,45,8.19,PE,1620471720
Kaniama,-7.5667,24.1833,82.44,51,18,4.29,CD,1620471721
Karratha,-20.7377,116.8463,80.35,54,2,6.2,AU,1620471721
Yangjiang,21.85,111.9667,79.5,82,17,7.36,CN,1620471721
Churapcha,62.0025,132.4325,48.45,53,92,1.66,RU,1620471721
Taltal,-25.4,-70.4833,59.2,83,2,2.48,CL,1620471722
Vestmannaeyjar,63.4427,-20.2734,37.4,65,75,5.75,IS,1620471722
Mayumba,-3.432,10.6554,82.56,74,100,6.87,GA,1620471722
Talaya,61.3833,152.75,14.59,88,27,1.32,RU,1620471723
Sabla,12.7525,4.7077,99.28,27,100,12.24,NG,1620471723
Polson,47.6936,-114.1632,39.0,87,87,1.01,US,1620471723
Provincia di Ancona,43.55,13.1667,66.0,59,94,9.22,IT,1620471724
Puerto Nariño,-3.7703,-70.3831,71.6,100,75,4.61,CO,1620471724
Gigmoto,13.7796,124.39,80.53,86,100,5.48,PH,1620471724
Bubaque,11.2833,-15.8333,76.87,68,52,1.9,GW,1620471725
Filingué,14.3521,3.3168,102.76,22,98,15.82,NE,1620471725
Maricá,-22.9194,-42.8186,68.0,94,75,10.36,BR,1620471660
Dudinka,69.4058,86.1778,32.61,92,95,13.35,RU,1620471725
Kadoma,34.7333,135.5833,66.99,88,75,9.22,JP,1620471532
Jasper,37.2001,-94.3502,60.8,63,40,9.22,US,1620471726
Artyom,40.4723,50.333,66.2,68,0,18.41,AZ,1620471726
Jardim,-21.4803,-56.1381,60.57,57,58,2.82,BR,1620471726
Hanmer Springs,-42.5167,172.8167,54.16,88,100,6.64,NZ,1620471727
Olinda,-8.0089,-34.8553,73.4,88,40,5.75,BR,1620471727
Hof,50.3167,11.9167,53.01,46,0,13.8,DE,1620471727
Guozhen,34.3659,107.359,81.61,33,0,4.72,CN,1620471728
Punta de Piedra,7.6176,-71.4916,72.23,95,100,1.05,VE,1620471728
Tura,25.5198,90.2201,76.57,77,66,3.76,IN,1620471728
Chapais,49.7834,-74.8492,33.8,86,90,3.44,CA,1620471729
Saint-Prosper,46.2117,-70.4811,30.2,86,100,6.17,CA,1620471729
San Rafael,-34.6177,-68.3301,47.35,81,31,4.79,AR,1620471643
Haverfordwest,51.8017,-4.9691,55.0,99,100,35.01,GB,1620471729
Isparta Province,38.0,31.0,80.6,29,75,10.36,TR,1620471730
Ouro Sogui,15.6064,-13.3211,99.86,8,45,11.72,SN,1620471730
Kolokani,13.5728,-8.0339,97.61,24,2,5.1,ML,1620471730
Kahului,20.8947,-156.47,73.4,60,1,11.5,US,1620471731
Verkh-Usugli,52.7,115.1667,46.09,45,93,6.2,RU,1620471731
Kiryat Gat,31.61,34.7642,96.01,18,0,5.99,IL,1620471731
Prince Rupert,54.3161,-130.3201,44.6,76,90,9.22,CA,1620471732
Arrifes,37.7667,-25.7,62.6,77,20,14.97,PT,1620471733
Fasa,28.9383,53.6482,89.6,13,20,16.11,IR,1620471733
Swellendam,-34.0226,20.4417,64.4,77,97,11.5,ZA,1620471734
Paraíso,9.8383,-83.8656,68.0,83,0,4.61,CR,1620471734
Takoradze,4.8845,-1.7554,82.15,76,100,5.3,GH,1620471735
Ottawa,45.4112,-75.6981,45.0,87,90,10.36,CA,1620471457
Alta Floresta,-9.8756,-56.0861,66.52,84,80,4.14,BR,1620471735
Gorom-Gorom,14.4439,-0.2361,103.1,18,27,14.5,BF,1620471735
Ossora,59.2353,163.0719,26.53,94,27,3.15,RU,1620471736
Havøysund,70.9963,24.6622,41.0,65,75,1.14,NO,1620471736
Moroni,-11.7022,43.2551,79.02,73,100,14.45,KM,1620471736
Portland,45.5234,-122.6762,44.6,70,90,2.8,US,1620471360
Karlovasi,37.7903,26.7044,77.0,53,20,6.91,GR,1620471737
Palmer,42.1584,-72.3287,45.0,76,90,3.98,US,1620471737
Flinders,-34.5833,150.8552,64.99,74,100,1.01,AU,1620471737
Veracruz,19.3333,-96.6667,73.99,100,1,3.74,MX,1620471738
Kolondiéba,11.0882,-6.8926,96.08,31,17,4.25,ML,1620471738
Oussouye,12.485,-16.5469,82.4,73,0,4.61,SN,1620471738
São Filipe,14.8961,-24.4956,72.05,79,91,12.91,CV,1620471739
Sterling,39.0062,-77.4286,44.6,93,90,4.61,US,1620471739
College,64.8569,-147.8028,42.01,81,20,5.75,US,1620471739
Yuancheng,36.652,107.7896,77.99,13,17,4.25,CN,1620471740
Dingle,10.9995,122.6711,82.24,73,99,6.08,PH,1620471740
Los Alamos,35.8881,-106.307,57.2,12,1,4.61,US,1620471740
Lodwar,3.1191,35.5973,81.97,60,99,7.11,KE,1620471741
Neiafu,-18.65,-173.9833,77.47,73,100,30.74,TO,1620471741
Nelson Bay,-32.7167,152.15,64.99,94,84,4.09,AU,1620471741
Chokwé,-24.5333,32.9833,81.55,41,0,5.61,MZ,1620471741
Panjāb,34.388,67.0233,64.42,24,50,11.45,AF,1620471742
Rjukan,59.8789,8.5941,44.01,66,9,3.98,NO,1620471742
Sørland,67.667,12.6934,42.8,70,40,8.05,NO,1620471742
Espoo,60.25,24.6667,48.0,46,75,11.5,FI,1620471743
Naze,28.3667,129.4833,68.0,94,75,8.05,JP,1620471456
Vao,-22.6667,167.4833,75.92,80,100,20.29,NC,1620471743
Marabu,4.4148,114.0089,86.0,74,20,3.44,MY,1620471743
Saurimo,-9.6608,20.3916,84.2,51,40,8.05,AO,1620471744
Minas de Barroterán,27.6333,-101.2833,69.13,62,20,3.11,MX,1620471744
Samfya,-11.3649,29.5565,75.31,35,47,2.53,ZM,1620471744
Korla,41.7597,86.1469,88.63,4,99,4.25,CN,1620471745
Sabha,27.0377,14.4283,90.16,17,100,15.99,LY,1620471745
Vung Tau,10.346,107.0843,84.34,76,100,15.14,VN,1620471745
Turbat,26.0023,63.044,103.19,16,2,12.66,PK,1620471746
Caohai,26.8661,104.2841,61.47,70,69,3.44,CN,1620471746
Cochabamba,-17.3895,-66.1568,50.0,87,88,1.77,BO,1620471746
Udachny,66.4167,112.4,38.68,92,61,8.28,RU,1620471747
Kuusamo,65.9667,29.1833,35.6,60,75,10.36,FI,1620471747
Moyale,3.5167,39.0584,73.47,66,84,6.13,KE,1620471747
Nakatsugawa,35.4833,137.5,66.99,74,100,3.15,JP,1620471748
Sabancuy,18.9667,-91.1833,74.82,86,90,8.79,MX,1620471748
Hachinohe,40.5,141.5,53.22,67,19,7.74,JP,1620471748
Joensuu,62.6012,29.7632,39.0,93,90,9.22,FI,1620471749
Casablanca,33.5928,-7.6192,78.8,68,0,9.22,MA,1620471749
Gävle,60.6745,17.1417,52.0,33,28,5.01,SE,1620471749
Trairi,-3.2778,-39.2689,78.28,86,50,6.76,BR,1620471626
Yellandu,17.6,80.3333,97.14,32,60,3.09,IN,1620471750
Kavieng,-2.5744,150.7967,83.44,77,87,13.71,PG,1620471750
Alofi,-19.0595,-169.9187,75.2,69,95,19.57,NU,1620471750
Los Llanos de Aridane,28.6585,-17.9182,71.6,60,40,9.22,ES,1620471751
Bardejov,49.2918,21.2727,50.0,10,81,5.01,SK,1620471751
Il’inskiy,55.619,38.1182,48.99,93,90,15.66,RU,1620471751
Estelle,29.8458,-90.1067,68.0,100,1,5.03,US,1620471751
Terre Haute,39.4667,-87.4139,36.0,80,1,4.16,US,1620471620
Esperance,-33.8667,121.9,59.0,77,70,5.75,AU,1620471752
Nandyāl,15.4833,78.4833,103.24,21,4,9.57,IN,1620471631
Carquefou,47.2982,-1.4902,69.01,63,20,13.8,FR,1620471752
Chitipa,-9.7024,33.2697,73.18,54,44,6.87,MW,1620471753
Srednekolymsk,67.45,153.6833,29.16,83,100,4.07,RU,1620471753
Vila Velha,-20.3297,-40.2925,75.0,94,75,6.91,BR,1620471626
Mossamedes,-15.1961,12.1522,80.6,65,20,6.91,AO,1620471753
Richards Bay,-28.783,32.0377,78.85,57,2,8.95,ZA,1620471754
Clarence Town,-32.5833,151.7833,64.99,94,81,2.62,AU,1620471754
Jalingo,8.8833,11.3667,88.86,49,98,6.82,NG,1620471754
Lázaro Cárdenas,17.9583,-102.2,76.91,77,100,4.38,MX,1620471755
Petaluma,38.2324,-122.6367,53.6,81,1,4.56,US,1620471540
Narsaq,60.9167,-46.05,39.2,65,20,3.44,GL,1620471755
Koutsouras,35.0339,25.9469,73.71,67,99,5.26,GR,1620471755
Tuyen Quang,21.8233,105.2181,85.06,75,61,3.15,VN,1620471756
Guerrero Negro,27.9769,-114.0611,57.63,84,36,11.03,MX,1620471756
Santo Antônio do Içá,-3.1022,-67.9397,71.37,98,100,3.83,BR,1620471756
Pozo Colorado,-23.4923,-58.7972,49.33,65,0,3.74,PY,1620471757
Yermekeyevo,54.0761,53.6712,66.76,40,96,5.64,RU,1620471757
Bilibino,68.0546,166.4372,12.0,93,13,5.23,RU,1620471757
Carutapera,-1.195,-46.02,80.26,83,28,4.74,BR,1620471758
Batagay,67.6333,134.6333,33.44,85,96,4.25,RU,1620471758
Belyy Yar,53.6039,91.3903,68.0,21,0,13.42,RU,1620471758
Safi,32.2994,-9.2372,68.72,74,73,15.93,MA,1620471696
Crossville,35.949,-85.0269,48.0,71,20,4.61,US,1620471759
Nouakchott,18.0858,-15.9785,78.8,44,0,16.11,MR,1620471672
Kushiro,42.975,144.3747,51.8,71,20,2.3,JP,1620471759
Nālūt,30.3333,10.85,83.7,24,0,7.92,LY,1620471759
Krasnopillya,50.7746,35.2597,52.75,94,100,15.05,UA,1620471760
Cidreira,-30.1811,-50.2056,56.19,79,12,5.97,BR,1620471760
Parintins,-2.6283,-56.7358,74.61,95,99,2.3,BR,1620471564
Kibala,9.1104,18.3463,89.6,51,20,11.5,TD,1620471760
Balyqshy,47.0667,51.8667,78.8,22,0,11.18,KZ,1620471761
Sur,22.5667,59.5289,88.2,56,68,2.66,OM,1620471761
San Patricio,28.017,-97.5169,78.8,89,90,8.05,US,1620471761
Russell,32.3502,-85.1999,46.4,93,1,1.14,US,1620471762
Graaff-Reinet,-32.2522,24.5308,64.0,58,84,15.01,ZA,1620471762
Rewa,24.5333,81.3,101.08,15,49,6.26,IN,1620471762
Dovolnoye,54.4958,79.6671,68.97,33,9,15.32,RU,1620471762
City of San Pedro,14.35,121.0167,89.6,66,40,11.5,PH,1620471620
Batticaloa,7.7102,81.6924,84.87,65,100,6.46,LK,1620471763
Ankpa,7.3706,7.6253,79.05,76,95,7.45,NG,1620471763
Calama,-22.4667,-68.9333,46.4,36,0,16.11,CL,1620471763
Magway,20.15,94.9167,100.87,24,16,6.22,MM,1620471764
Gazojak,41.1875,61.4036,81.36,17,92,15.17,TM,1620471764
Vostok,46.4856,135.8833,44.58,88,99,3.91,RU,1620471764
Storforshei,66.4043,14.5233,42.8,56,40,13.8,NO,1620471765
Pyinmana,19.7333,96.2167,79.65,74,29,11.88,MM,1620471765
Kavaratti,10.5669,72.642,85.91,67,99,1.28,IN,1620471765
Soligalich,59.0778,42.2864,59.61,34,99,13.2,RU,1620471766
Pangoa,-12.1167,-73.0,61.84,97,97,0.43,PE,1620471766
Salina Cruz,16.1667,-95.2,80.11,67,34,11.74,MX,1620471624
Pindwāra,24.8,73.0667,102.88,12,60,5.99,IN,1620471767
Pacific Grove,36.6177,-121.9166,48.99,81,90,3.44,US,1620471767
Pingyin,36.2831,116.4453,74.12,21,49,14.45,CN,1620471767
Dubbo,-32.25,148.6167,62.6,59,100,6.91,AU,1620471767
Payo,-3.7508,103.6372,77.32,93,44,0.6,ID,1620471768
Byron Bay,-28.65,153.6167,64.99,94,100,4.99,AU,1620471668
Orbetello,42.4408,11.2196,71.6,49,40,4.61,IT,1620471768
Margate,51.3813,1.3862,55.0,90,100,5.99,GB,1620471768
Novoagansk,61.9449,76.6625,38.95,70,100,11.45,RU,1620471769
Muhos,64.808,25.9931,41.0,45,0,12.66,FI,1620471769
Tupik,54.4253,119.9327,39.18,70,93,7.72,RU,1620471769
Shache,38.4167,77.2406,88.52,10,54,4.43,CN,1620471770
Churāchāndpur,24.3333,93.6667,78.8,50,40,2.3,IN,1620471770
Xichang,27.8964,102.2634,74.79,47,54,2.51,CN,1620471770
Uyar,55.81,94.3153,48.69,64,100,9.01,RU,1620471771
Mitchell,43.7094,-98.0298,48.2,40,75,14.97,US,1620471541
Mount Gambier,-37.8333,140.7667,51.8,87,90,2.15,AU,1620471771
Sechura,-5.5569,-80.8222,67.03,81,73,10.22,PE,1620471771
Ketchikan,55.3422,-131.6461,44.6,93,90,13.8,US,1620471772
Camacupa,-12.0167,17.4833,78.49,44,43,4.7,AO,1620471486
Celestún,20.8667,-90.4,75.36,83,6,9.8,MX,1620471772
Matagami,49.7502,-77.6328,26.6,100,90,2.3,CA,1620471772
Atagay,55.1033,99.3875,50.05,76,100,7.61,RU,1620471773
Yabēlo,4.8833,38.0833,66.65,67,100,1.1,ET,1620471773
Lorengau,-2.0226,147.2712,82.99,80,53,10.31,PG,1620471675
Kimbe,-5.5502,150.1429,77.18,92,99,6.04,PG,1620471773
Flin Flon,54.7682,-101.865,26.28,95,13,6.64,CA,1620471774
Marrakesh,31.6315,-8.0083,95.0,23,40,6.91,MA,1620471555
Cururupu,-1.8283,-44.8683,79.48,87,45,2.82,BR,1620471774
Fergus Falls,46.283,-96.0776,41.0,65,1,3.44,US,1620471775
Zhob,31.3411,69.4481,85.75,13,1,6.91,PK,1620471775
Nizwá,22.9333,57.5333,91.58,34,28,2.77,OM,1620471775
Emirdağ,39.0197,31.15,81.59,22,100,8.14,TR,1620471776
Vágur,61.4732,-6.8119,37.65,61,54,16.33,FO,1620471776
Mayo,38.8876,-76.5119,46.99,87,40,5.48,US,1620471776
Boa Vista,2.8197,-60.6733,77.0,88,75,10.36,BR,1620471777
Zhigansk,66.7697,123.3711,35.35,72,67,3.4,RU,1620471777
Jiuquan,39.7432,98.5174,83.61,4,12,12.08,CN,1620471777
Arki,31.15,76.9667,78.73,37,44,6.22,IN,1620471777
Mildura,-34.2,142.15,64.4,68,90,4.61,AU,1620471778
Manta,-0.95,-80.7333,72.28,86,97,7.47,EC,1620471778
Kiama,-34.6833,150.8667,64.99,74,100,1.01,AU,1620471778
Naples,40.8333,14.25,73.99,46,20,5.75,IT,1620471779
Najrān,17.4924,44.1277,98.6,10,0,9.22,SA,1620471779
Tahe,52.3333,124.7333,40.96,62,98,3.85,CN,1620471779
Tezu,27.9167,96.1667,85.71,54,41,3.31,IN,1620471780
Adrar,20.5022,-10.0711,93.79,8,11,6.76,MR,1620471780
Grindavik,63.8424,-22.4338,37.4,56,20,9.22,IS,1620471780
Tabuk,17.4189,121.4443,80.01,68,67,4.36,PH,1620471780
Ixtapa,20.7,-105.2,75.0,86,13,2.15,MX,1620471650
Salalah,17.0151,54.0924,89.6,66,75,16.11,OM,1620471781
Broken Hill,-31.95,141.4333,57.2,94,32,4.61,AU,1620471781
Siemiatycze,52.4272,22.8623,43.63,78,90,13.91,PL,1620471657
Zyryanka,65.75,150.85,31.1,84,100,5.66,RU,1620471782
Gien,47.6933,2.6309,69.01,63,97,4.0,FR,1620471782
Miranda,3.2499,-76.2281,66.2,100,75,4.61,CO,1620471782
Port Said,31.2565,32.2841,82.4,42,0,11.5,EG,1620471783
Indāpur,18.3,73.25,99.09,31,2,13.47,IN,1620471783
Aitape,-3.1374,142.3475,80.91,84,75,4.23,PG,1620471783
Caravelas,-17.7125,-39.2481,75.7,86,13,7.67,BR,1620471784
Pedra Branca,-5.4542,-39.7172,71.19,95,64,3.98,BR,1620471653
Santa Inês,-3.6667,-45.38,77.0,91,82,2.86,BR,1620471538
Nouadhibou,20.931,-17.0347,71.6,68,0,23.02,MR,1620471784
