City,Lat,Lng,Max Temp,Humidity,Clouds,Wind Speed,Country,Date
Mar del Plata,-38.0023,-57.5575,64.99,82,0,12.66,AR,1619962274
Boda,4.3189,17.4695,88.02,50,98,1.86,CF,1619962275
Lavrentiya,65.5833,-171.0,17.04,89,100,9.55,RU,1619962275
Chilca,-12.5211,-76.7372,66.99,94,20,2.3,PE,1619962275
Saquena,-4.6667,-73.5167,76.46,87,85,1.79,PE,1619962276
Hermanus,-34.4187,19.2345,84.99,32,0,3.0,ZA,1619962276
Aras,42.5617,-2.356,59.0,38,75,6.91,ES,1619962276
Rikitea,-23.1203,-134.9692,76.84,72,95,14.27,PF,1619962277
Nikolskoye,59.7035,30.7861,50.0,43,40,4.47,RU,1619962277
Bilma,18.6853,12.9164,106.12,3,0,11.97,NE,1619962277
Barrow,71.2906,-156.7887,14.0,79,90,5.75,US,1619962278
Yining,29.0361,114.5636,68.09,90,96,3.71,CN,1619962278
Acapulco de Juárez,16.8634,-99.8901,73.4,88,20,2.3,MX,1619962278
Clyde River,70.4692,-68.5914,24.8,100,90,6.91,CA,1619962278
Bonavista,48.6499,-53.1147,44.6,65,100,14.97,CA,1619962279
Monrovia,6.3005,-10.7969,89.6,66,75,6.91,LR,1619962279
Busselton,-33.65,115.3333,57.99,89,100,1.99,AU,1619962279
Hilo,19.7297,-155.09,71.6,83,90,3.44,US,1619962140
Souillac,-20.5167,57.5167,82.4,78,40,8.05,MU,1619962280
San Cristobal,7.7669,-72.225,75.2,100,75,0.81,VE,1619962223
Hobart,-42.8794,147.3294,57.2,72,34,2.3,AU,1619962061
Saint Paul Harbor,57.79,-152.4072,41.0,81,90,14.97,US,1619962280
Yulara,-25.2406,130.9889,62.6,36,100,5.75,AU,1619962281
Cape Town,-33.9258,18.4232,81.0,22,0,9.22,ZA,1619962022
Cherskiy,68.75,161.3,5.13,94,16,3.31,RU,1619962281
Kapaa,22.0752,-159.319,73.4,88,90,13.8,US,1619962212
Tezu,27.9167,96.1667,71.89,75,7,3.02,IN,1619962282
Butaritari,3.0707,172.7902,82.38,75,20,13.18,KI,1619962282
Sitka,57.0531,-135.33,39.2,87,90,2.82,US,1619962282
Luanda,-8.8368,13.2343,84.2,79,40,9.22,AO,1619962095
Jamestown,42.097,-79.2353,59.0,76,90,9.22,US,1619962215
Kununurra,-15.7667,128.7333,71.6,83,0,4.61,AU,1619962283
Rawson,-43.3002,-65.1023,59.38,44,100,13.67,AR,1619962283
Talara,-4.5772,-81.2719,75.0,66,41,10.11,PE,1619962284
Khatanga,71.9667,102.5,31.75,91,100,7.36,RU,1619962284
Iqaluit,63.7506,-68.5145,37.4,70,90,14.97,CA,1619962284
Katsuura,35.1333,140.3,64.0,44,75,17.27,JP,1619962285
Saskylakh,71.9167,114.0833,15.82,99,84,4.09,RU,1619962285
Vaini,-21.2,-175.2,75.2,69,75,12.66,TO,1619962285
Lalibela,12.0333,39.0333,57.7,77,100,2.37,ET,1619962286
Albany,42.6001,-73.9662,61.0,47,40,8.05,US,1619961989
Punta Arenas,-53.15,-70.9167,37.4,87,75,8.05,CL,1619962286
Sept-Îles,50.2001,-66.3821,39.99,35,75,6.91,CA,1619962286
Baruun-Urt,46.6806,113.2792,60.13,31,100,11.65,MN,1619962287
Praia da Vitória,38.7333,-27.0667,64.4,82,75,14.52,PT,1619962287
Puerto Ayora,-0.7393,-90.3518,75.0,96,100,8.01,EC,1619962287
Yellowknife,62.456,-114.3525,16.0,57,1,8.05,CA,1619962208
Seoul,37.5683,126.9778,53.6,71,0,4.61,KR,1619962040
Mataura,-46.1927,168.8643,54.0,93,55,4.0,NZ,1619962288
Peterhead,57.5058,-1.7981,46.4,76,75,8.05,GB,1619962288
Ukiah,39.1502,-123.2078,50.0,66,1,4.14,US,1619962288
Visby,57.6409,18.296,52.0,57,0,6.91,SE,1619962289
Tazovsky,67.4667,78.7,32.27,97,100,18.75,RU,1619962289
Puerto Maldonado,-12.6,-69.1833,81.39,57,27,2.19,PE,1619962289
São João da Barra,-21.6403,-41.0511,77.0,69,0,3.49,BR,1619962290
Nyurba,63.2842,118.3319,32.14,99,100,2.13,RU,1619962290
Atuona,-9.8,-139.0333,79.61,72,63,11.7,PF,1619962290
Andenes,69.3143,16.1194,37.4,56,20,11.5,NO,1619962291
Havelock,34.8791,-76.9013,70.0,64,1,8.05,US,1619962291
Qaanaaq,77.484,-69.3632,31.69,66,62,6.53,GL,1619962291
El Alto,-4.2714,-81.2147,73.89,65,51,3.0,PE,1619962291
Chui,-33.6971,-53.4616,70.74,58,56,5.26,UY,1619962292
Port Alfred,-33.5906,26.891,71.28,56,0,15.14,ZA,1619962292
Lagoa,39.05,-27.9833,60.57,81,29,12.21,PT,1619962292
Avarua,-21.2078,-159.775,73.4,100,75,2.3,CK,1619962293
East London,-33.0153,27.9116,69.8,60,0,9.22,ZA,1619962293
Tytuvėnai,55.6,23.2,48.2,40,0,16.11,LT,1619962293
Ahipara,-35.1667,173.1667,52.07,82,0,4.65,NZ,1619962294
New Norfolk,-42.7826,147.0587,57.99,72,8,2.3,AU,1619962294
Ushuaia,-54.8,-68.3,37.4,75,0,5.75,AR,1619962107
Esperance,-33.8667,121.9,57.2,82,40,8.05,AU,1619962294
Bull Savanna,17.8868,-77.5902,79.65,65,9,8.75,JM,1619962295
Baghdad,33.3406,44.4009,91.4,16,20,11.5,IQ,1619962207
Pachino,36.7186,15.0907,79.0,41,100,6.91,IT,1619962295
Cayenne,4.9333,-52.3333,80.6,78,40,4.61,GF,1619962204
Bluff,-46.6,168.3333,54.0,93,72,4.0,NZ,1619962296
Cockburn Town,21.4612,-71.1419,79.07,69,29,16.31,TC,1619962296
São Filipe,14.8961,-24.4956,71.71,69,24,10.09,CV,1619962296
Bredasdorp,-34.5322,20.0403,75.2,41,13,8.05,ZA,1619962297
North Bend,43.4065,-124.2243,50.0,93,90,3.44,US,1619962297
Rafai,4.95,23.9167,81.84,52,99,2.17,CF,1619962297
Afşin,38.2477,36.914,74.35,24,86,18.52,TR,1619962297
Pasni,25.2631,63.471,83.59,66,0,13.78,PK,1619962154
Asău,46.4333,26.4,82.4,36,40,10.36,RO,1619962298
Aquin,18.2833,-73.4,80.44,72,38,7.14,HT,1619962298
Tigzirt,36.8886,4.1198,66.69,67,100,10.6,DZ,1619962298
Arraial do Cabo,-22.9661,-42.0278,77.0,78,40,5.75,BR,1619962299
Nago,26.5881,127.9761,69.8,72,1,8.05,JP,1619962299
George Town,5.4112,100.3354,82.4,83,40,6.91,MY,1619962001
Nanortalik,60.1432,-45.2371,38.57,55,100,10.58,GL,1619962299
Cidreira,-30.1811,-50.2056,73.04,53,0,1.95,BR,1619962300
Norman Wells,65.282,-126.8329,28.4,80,75,3.44,CA,1619962300
Salalah,17.0151,54.0924,87.8,70,40,14.97,OM,1619962300
Mahébourg,-20.4081,57.7,82.4,78,40,8.05,MU,1619962301
Sawākin,19.1059,37.3321,89.1,56,0,10.04,SD,1619962301
Abu Samrah,35.3029,37.1841,87.64,18,51,19.75,SY,1619962301
Araouane,18.9048,-3.5265,103.93,14,8,2.75,ML,1619962302
Tasiilaq,65.6145,-37.6368,32.0,74,1,6.91,GL,1619962302
Berzovia,45.4261,21.6281,82.4,36,0,11.5,RO,1619962302
Kahului,20.8947,-156.47,71.01,80,11,11.01,US,1619962303
Bambous Virieux,-20.3428,57.7575,82.4,78,40,8.05,MU,1619962303
Saint Anthony,45.0205,-93.218,60.01,54,1,4.61,US,1619962303
Kaitangata,-46.2817,169.8464,46.92,87,1,6.26,NZ,1619962304
Buala,-8.145,159.5921,79.66,82,46,3.76,SB,1619962304
Conchagua,13.3078,-87.8647,75.2,94,40,2.3,SV,1619962304
Lompoc,34.6391,-120.4579,51.8,82,52,12.66,US,1619962060
Odienné,9.51,-7.5692,101.91,25,65,3.49,CI,1619962305
Genhe,50.7833,121.5167,43.54,56,100,2.89,CN,1619962305
Batagay,67.6333,134.6333,29.28,97,100,2.75,RU,1619962305
Comodoro Rivadavia,-45.8667,-67.5,57.2,44,0,26.46,AR,1619962306
Ilulissat,69.2167,-51.1,42.8,28,1,20.71,GL,1619962306
Santa Cruz de la Sierra,-17.8,-63.1667,77.0,65,40,17.27,BO,1619962204
Maunabo,18.0072,-65.8993,82.99,77,55,8.01,PR,1619962306
La Ronge,55.1001,-105.2842,28.4,93,90,10.36,CA,1619962307
Ust-Nera,64.5667,143.2,30.4,96,100,3.67,RU,1619962307
Dikson,73.5069,80.5464,25.47,91,99,8.72,RU,1619962307
Brigantine,39.4101,-74.3646,70.0,37,1,11.5,US,1619962308
Kutum,14.2,24.6667,93.56,8,10,12.01,SD,1619962308
Tual,-5.6667,132.75,83.19,75,98,13.89,ID,1619962308
Port Elizabeth,-33.918,25.5701,69.8,52,0,13.8,ZA,1619962309
Boa Vista,2.8197,-60.6733,80.6,74,75,9.22,BR,1619962309
Lebu,-37.6167,-73.65,55.81,92,100,2.24,CL,1619962309
Lagan,45.3929,47.3707,67.73,52,2,12.35,RU,1619962310
Bukachacha,52.9833,116.9167,41.56,94,100,2.73,RU,1619962310
Hoquiam,46.9809,-123.8893,39.99,87,1,1.41,US,1619962310
Río Gallegos,-51.6226,-69.2181,41.0,87,40,10.36,AR,1619962289
Isabela,6.7085,121.9711,80.6,94,75,2.3,PH,1619962311
Hasaki,35.7333,140.8333,55.4,50,75,19.57,JP,1619962311
Vrangel',42.7297,133.0839,46.56,85,99,11.99,RU,1619962311
Sobolevo,54.4299,31.8996,50.22,84,100,10.27,RU,1619962312
Custoias,41.1053,-7.321,70.0,38,35,1.21,PT,1619962312
Pasān,22.85,82.2,74.26,56,81,3.71,IN,1619962313
Bela,25.9333,81.9833,94.96,22,98,13.65,IN,1619962313
Aykhal,66.0,111.5,32.0,98,100,3.67,RU,1619962314
Sovetskiy,61.3614,63.5842,46.38,28,43,13.65,RU,1619962157
Nabire,-3.3667,135.4833,77.47,88,100,3.51,ID,1619962315
Pavino,59.1139,46.1414,45.07,58,92,6.02,RU,1619962315
Port Macquarie,-31.4333,152.9167,59.0,100,40,4.68,AU,1619962316
Vila Franca do Campo,37.7167,-25.4333,62.6,94,75,10.36,PT,1619962316
Pevek,69.7008,170.3133,6.08,98,100,1.74,RU,1619962316
Bud,39.447,-86.1758,66.99,63,1,9.22,US,1619962317
Aljezur,37.3191,-8.8033,62.4,50,100,14.25,PT,1619962317
Chumikan,54.7183,135.315,30.13,95,100,3.02,RU,1619962317
Tiznit Province,29.5833,-9.5,71.76,43,1,13.04,MA,1619962318
Kiryat Gat,31.61,34.7642,84.99,32,12,4.0,IL,1619962318
Sola,-13.8833,167.55,79.34,79,100,9.78,VU,1619962318
Roebourne,-20.7833,117.1333,80.91,56,57,9.51,AU,1619962319
Inuvik,68.3499,-133.7218,23.0,86,100,4.61,CA,1619962202
Wasilla,61.5814,-149.4394,37.4,80,1,4.92,US,1619962319
Elizabethtown,37.694,-85.8591,64.0,67,1,4.61,US,1619962089
Itarema,-2.9248,-39.9167,84.16,62,94,8.7,BR,1619962320
Kalmunai,7.4167,81.8167,83.28,74,66,7.49,LK,1619962320
Bengkulu,-3.8004,102.2655,78.13,89,100,5.44,ID,1619962320
Palmer,42.1584,-72.3287,63.0,33,75,10.36,US,1619962320
Beringovskiy,63.05,179.3167,9.1,96,88,9.26,RU,1619962321
Vao,-22.6667,167.4833,74.37,74,24,23.69,NC,1619962321
Aswān,24.0934,32.907,103.95,5,0,12.35,EG,1619962321
Abbeville,50.1,1.8333,53.01,54,20,11.01,FR,1619962322
Kjøpsvik,68.097,16.3742,37.99,56,40,8.05,NO,1619962322
Guerrero Negro,27.9769,-114.0611,58.77,80,54,14.23,MX,1619962322
Constitución,-35.3333,-72.4167,55.76,96,100,5.08,CL,1619962323
Tuatapere,-46.1333,167.6833,54.0,93,4,4.0,NZ,1619962323
Harper,4.375,-7.7169,85.66,68,100,9.73,LR,1619962323
Mana,5.6592,-53.7767,80.74,81,99,7.54,GF,1619962324
Barra de Tecoanapa,16.5167,-98.75,80.92,69,38,6.73,MX,1619962324
Mazamitla,19.9167,-103.0333,59.99,45,0,1.92,MX,1619962324
Hare Bay,48.8499,-54.0148,46.4,65,81,14.97,CA,1619962325
Tiksi,71.6872,128.8694,25.36,99,100,3.51,RU,1619962325
Kumluca,36.3703,30.2869,81.48,44,100,5.06,TR,1619962325
Japura,-0.3167,102.35,75.78,95,99,1.92,ID,1619962325
Andros Town,24.7,-77.7667,82.4,65,40,12.66,BS,1619962213
Ancud,-41.8697,-73.8203,52.0,93,40,4.61,CL,1619962326
Shingū,33.7333,135.9833,51.55,67,49,9.04,JP,1619962326
Paita,-5.0892,-81.1144,72.59,69,24,11.36,PE,1619962327
Denpasar,-8.65,115.2167,82.4,89,20,8.05,ID,1619962327
Hong Kong,22.2855,114.1577,79.0,85,100,3.0,HK,1619962305
Kholodnyy,62.7167,147.95,27.43,97,100,1.48,RU,1619962327
Adrar,20.5022,-10.0711,95.58,15,100,5.46,MR,1619962328
Anadyr,64.75,177.4833,6.8,85,20,4.63,RU,1619962328
Hithadhoo,-0.6,73.0833,81.59,72,99,3.04,MV,1619962328
Muravlenko,63.7898,74.523,34.83,99,100,7.63,RU,1619962328
Ponta do Sol,32.6667,-17.1,63.0,62,99,3.0,PT,1619962329
Snezhnogorsk,69.1933,33.2531,37.4,56,40,4.47,RU,1619962329
Bilibino,68.0546,166.4372,-3.64,84,20,5.17,RU,1619962329
Itoman,26.1247,127.6694,69.8,52,20,13.8,JP,1619962330
Elko,41.0002,-115.5012,44.01,84,100,10.0,US,1619962208
Hamilton,39.1834,-84.5333,66.99,51,75,8.05,US,1619962330
Sampit,-2.5333,112.95,79.39,83,98,2.3,ID,1619962330
Faanui,-16.4833,-151.75,80.22,68,2,5.14,PF,1619962331
Jiangyou,31.7667,104.7167,68.61,89,100,3.6,CN,1619962331
Isiro,2.7739,27.616,82.29,61,98,3.29,CD,1619962207
Ormara,25.2088,64.6357,83.17,69,1,14.5,PK,1619962331
Kavaratti,10.5669,72.642,85.77,69,92,4.81,IN,1619962332
Huarmey,-10.0681,-78.1522,70.83,74,6,6.98,PE,1619962332
Road Town,18.4167,-64.6167,82.99,69,40,9.22,VG,1619962324
Jenison,42.9072,-85.792,68.0,62,99,3.0,US,1619962332
Mangochi,-14.4782,35.2645,68.77,91,97,13.02,MW,1619962333
Mosetse,-20.75,26.65,74.01,33,31,16.8,BW,1619962333
Kaeo,-35.1,173.7833,48.99,92,0,3.0,NZ,1619962333
Thunder Bay,48.4001,-89.3168,44.6,76,20,12.66,CA,1619962334
Thinadhoo,0.5333,72.9333,83.3,70,96,4.72,MV,1619962334
Kushima,31.4583,131.2333,57.2,58,20,6.91,JP,1619962334
Castro,-24.7911,-50.0119,66.87,68,39,4.25,BR,1619962335
Hervey Bay,-25.2986,152.8535,69.01,88,74,6.91,AU,1619962335
Magadan,59.5667,150.8,33.21,65,57,5.19,RU,1619962335
Santa Cruz do Capibaribe,-7.9575,-36.2047,85.78,48,85,7.9,BR,1619962336
Great Malvern,52.1116,-2.3252,55.99,35,71,1.01,GB,1619962336
Laas,46.6166,10.7002,68.0,50,75,10.36,IT,1619962336
Panabá,21.2833,-88.2667,84.04,58,14,15.3,MX,1619962337
Fortuna,40.5982,-124.1573,51.01,100,90,8.05,US,1619962337
Guane,22.2025,-84.0875,85.17,53,6,11.21,CU,1619962337
Torbay,47.6666,-52.7314,45.0,53,20,27.63,CA,1619962338
Sisimiut,66.9395,-53.6735,38.8,59,1,1.63,GL,1619962338
Port Lincoln,-34.7333,135.8667,61.36,62,100,9.1,AU,1619962338
Basco,20.4487,121.9702,79.74,85,74,17.63,PH,1619962339
Aracoiaba,-4.3711,-38.8142,85.01,61,78,5.1,BR,1619962339
Shangrao,28.4532,117.9686,68.67,75,100,9.22,CN,1619962339
Karagaylinskiy,54.172,86.5521,40.57,76,48,6.24,RU,1619962340
Samokov,42.3333,23.55,82.99,34,0,9.22,BG,1619962090
Daru,-9.0763,143.2092,79.3,83,83,13.09,PG,1619962340
Lieksa,63.3167,30.0167,39.88,49,57,4.21,FI,1619962340
Chokurdakh,70.6333,147.9167,2.3,95,5,4.5,RU,1619962341
Haicheng,40.8516,122.7475,52.83,46,90,10.22,CN,1619962341
Mitchelstown,52.2658,-8.2681,55.0,40,75,6.91,IE,1619962341
Labuhan,-6.8844,112.2051,80.94,78,94,10.89,ID,1619962342
Pine Bluff,34.2284,-92.0032,66.2,72,75,14.97,US,1619962342
Tarboro,35.8968,-77.5358,64.4,63,1,8.05,US,1619962342
Santa Marinella,42.0345,11.8536,60.01,83,56,1.01,IT,1619962343
Tegul'det,57.3064,88.1667,36.27,93,96,5.23,RU,1619962343
Ürümqi,43.801,87.6005,60.8,27,0,8.95,CN,1619962343
Farafangana,-22.8167,47.8333,77.05,84,100,10.47,MG,1619962344
Misratah,32.3754,15.0925,70.81,70,100,13.89,LY,1619962344
Ola,59.5833,151.2833,32.61,69,43,3.98,RU,1619962344
Nantucket,41.2835,-70.0995,55.4,67,75,19.57,US,1619962230
Vitim,59.4511,112.5578,32.94,98,99,2.66,RU,1619962345
Santander,43.4647,-3.8044,57.99,62,20,10.36,ES,1619962247
Provideniya,64.3833,-173.3,22.01,80,100,12.95,RU,1619962345
Elmshorn,53.75,9.65,52.0,74,93,4.0,DE,1619962345
Piet Retief,-27.0071,30.8132,61.74,50,9,5.7,ZA,1619962346
Esim,4.8699,-2.2405,86.41,68,98,11.77,GH,1619962346
Las Varas,21.1667,-105.1667,60.8,87,1,4.36,MX,1619962346
San Patricio,28.017,-97.5169,71.01,100,75,6.91,US,1619962347
San Ignacio,17.1561,-89.0714,77.0,88,0,6.91,BZ,1619962347
Tuktoyaktuk,69.4541,-133.0374,10.4,92,90,5.75,CA,1619962347
Kerrobert,51.9168,-109.1348,37.4,87,20,16.11,CA,1619962348
Vila,42.0304,-8.1588,62.01,42,82,7.0,PT,1619962348
Narsaq,60.9167,-46.05,46.4,21,96,42.57,GL,1619962348
Port Huron,42.9709,-82.4249,68.0,72,75,4.61,US,1619962349
Saldanha,-33.0117,17.9442,89.6,12,0,4.61,ZA,1619962349
Les Cayes,18.2,-73.75,82.04,67,25,9.08,HT,1619962349
Swan Hill,-35.3378,143.5544,62.33,62,6,4.54,AU,1619962350
Ribeira Grande,38.5167,-28.7,64.4,82,40,9.22,PT,1619962350
Oktyabr'skiy,54.4815,53.471,54.75,65,100,5.77,RU,1619962278
Illapel,-31.6308,-71.1653,64.72,60,100,1.48,CL,1619962350
Olafsvik,64.8945,-23.7142,37.81,58,22,14.85,IS,1619962351
Biak,-0.9131,122.8766,77.31,80,60,3.2,ID,1619962351
Cape Canaveral,28.4058,-80.6048,81.0,78,1,8.05,US,1619962351
Impfondo,1.6381,18.0667,95.43,35,90,2.26,CG,1619962352
Odesskoye,54.2111,72.9651,63.21,29,97,12.59,RU,1619962352
Coruripe,-10.1256,-36.1756,80.73,75,96,15.59,BR,1619962352
Goya,-29.14,-59.2626,78.37,47,45,8.55,AR,1619962353
Manzanillo,20.3433,-77.1167,79.79,60,36,3.11,CU,1619962097
Turaif,31.6725,38.6637,87.8,18,0,20.71,SA,1619962353
Vanimo,-2.6741,141.3028,78.75,83,100,1.21,PG,1619962353
Geraldton,-28.7667,114.6,64.4,63,0,10.36,AU,1619962354
Berlevåg,70.8578,29.0864,33.8,55,40,5.75,NO,1619962354
Tabas,33.5959,56.9244,85.3,28,24,9.8,IR,1619962107
Skibbereen,51.55,-9.2667,53.6,40,75,6.91,IE,1619962355
Arrondissement de Saint-Denis,48.9167,2.3333,57.0,38,0,8.05,FR,1619962355
Port Blair,11.6667,92.75,84.6,72,1,6.85,IN,1619962355
Umluj,25.0213,37.2685,85.66,48,0,8.55,SA,1619962213
Cabo San Lucas,22.8909,-109.9124,71.6,30,1,11.5,MX,1619962246
Gambo,4.6482,22.2633,78.55,71,100,3.02,CF,1619962356
Nikolayevsk-on-Amur,53.1406,140.73,30.36,93,100,5.19,RU,1619962356
Northam,51.0333,-4.2167,54.0,66,16,8.01,GB,1619962357
Codrington,-38.2667,141.9667,53.94,95,6,7.92,AU,1619962357
Upernavik,72.7868,-56.1549,33.84,72,11,4.43,GL,1619962357
Kusadak,44.3997,20.8033,84.2,30,0,14.97,RS,1619962358
Yeppoon,-23.1333,150.7333,69.8,83,90,5.75,AU,1619962358
Tam Ky,15.5667,108.4833,82.4,83,40,4.61,VN,1619962358
Linfen,36.0889,111.5189,53.11,79,100,3.27,CN,1619962358
Avera,33.194,-82.5271,66.2,83,1,4.61,US,1619962359
Arlit,18.7369,7.3853,107.62,2,0,7.36,NE,1619962359
Villars-sur-Glâne,46.7905,7.1172,48.99,66,75,10.36,CH,1619962360
Severnoye,56.3491,78.3619,55.69,44,100,16.33,RU,1619962360
Severo-Kuril'sk,50.6789,156.125,34.97,97,100,23.51,RU,1619962360
Otjimbingwe,-22.35,16.1333,85.32,23,13,16.22,NA,1619962361
Trairi,-3.2778,-39.2689,79.54,81,99,4.63,BR,1619962185
Porto-Novo,6.4965,2.6036,91.4,70,40,12.66,BJ,1619962361
Carbonia,39.1672,8.5222,73.4,40,0,10.36,IT,1619962361
Golakganj,26.1,89.8333,75.6,78,99,13.22,IN,1619962362
Nisibis,37.0778,41.2178,83.61,24,7,10.38,TR,1619962362
Lumberton,34.6182,-79.0086,66.2,72,1,6.91,US,1619962256
Saint-Philippe,-21.3585,55.7679,80.6,69,90,6.91,RE,1619962363
Romny,50.751,33.4747,65.77,69,100,13.58,UA,1619962363
Grand Island,40.925,-98.342,63.0,82,1,16.11,US,1619962132
Serpa,37.9458,-7.5975,62.6,45,20,6.91,PT,1619962363
Rørvik,64.8621,11.2373,42.8,56,40,10.36,NO,1619962364
Žemaičių Naumiestis,55.3592,21.7022,49.24,56,100,16.02,LT,1619962364
Novyy Urgal,51.0736,132.5642,37.44,79,8,3.09,RU,1619962364
Rameshki,57.3439,36.0453,52.11,48,98,0.47,RU,1619962365
Marigot,18.0667,-63.0833,84.2,61,20,11.5,MF,1619962152
Marawi,7.9986,124.2928,79.0,84,39,5.99,PH,1619962365
Province of Mantua,45.1667,10.7833,69.01,67,26,5.01,IT,1619962365
Khasan,42.4308,130.6434,49.23,70,76,4.07,RU,1619962366
Bernalillo,35.05,-106.6673,61.0,21,40,11.3,US,1619962366
Swift Current,50.2834,-107.8014,41.0,70,1,9.22,CA,1619962208
Gijón,43.5357,-5.6615,57.99,55,24,8.01,ES,1619962366
Nelson Bay,-32.7167,152.15,64.0,100,100,4.61,AU,1619962367
Fort Nelson,58.8053,-122.7002,39.2,65,75,3.96,CA,1619962367
Teya,60.3778,92.6267,34.72,93,100,6.44,RU,1619962367
Warrnambool,-38.3833,142.4833,54.0,92,12,9.55,AU,1619962368
Carnarvon,-24.8667,113.6333,69.8,64,100,16.11,AU,1619962368
Chapada dos Guimarães,-15.4606,-55.7497,84.2,51,0,9.22,BR,1619962368
Lorengau,-2.0226,147.2712,81.25,75,94,0.56,PG,1619962369
Katherine,-14.4667,132.2667,69.8,68,0,4.61,AU,1619962369
Pozo Colorado,-23.4923,-58.7972,85.87,41,0,8.25,PY,1619962369
Seryshevo,51.0933,128.3786,46.85,41,5,6.71,RU,1619962370
Havre-St-Pierre,50.2334,-63.5986,39.2,60,1,17.27,CA,1619962370
Saint George,37.1041,-113.5841,59.0,25,1,6.91,US,1619962370
Morehead,37.2711,-87.1764,64.99,72,90,8.48,US,1619962370
Dori,14.0354,-0.0345,108.37,7,47,11.41,BF,1619962371
Taoudenni,22.6783,-3.9836,102.72,16,94,6.31,ML,1619962371
Lock Haven,41.137,-77.4469,64.0,46,86,1.99,US,1619962372
Cartagena,10.3997,-75.5144,84.2,84,40,3.44,CO,1619962204
Maniitsoq,65.4167,-52.9,37.06,57,0,5.39,GL,1619962372
Hofn,64.2539,-15.2082,39.2,56,75,12.66,IS,1619962372
Morondava,-20.2833,44.2833,80.51,64,100,16.91,MG,1619962373
Alghero,40.5589,8.3181,66.2,55,20,10.36,IT,1619962373
Baudh,20.8416,84.3213,95.32,22,87,2.82,IN,1619962374
Srednekolymsk,67.45,153.6833,13.48,92,5,5.68,RU,1619962375
Zhicheng,30.2956,111.5047,72.0,62,100,5.75,CN,1619962375
Nouadhibou,20.931,-17.0347,71.6,60,0,20.71,MR,1619962376
Nemuro,43.3236,145.575,36.14,83,92,18.66,JP,1619962376
Yangi Marg`ilon,40.4272,71.7189,82.4,28,65,4.61,UZ,1619962376
Holme,56.1138,10.1725,53.6,40,73,10.36,DK,1619962377
Banda Aceh,5.5577,95.3222,82.67,76,97,7.11,ID,1619962377
Kupang,-10.1667,123.5833,77.16,75,16,10.74,ID,1619962377
Rypin,53.066,19.4094,42.01,95,100,4.0,PL,1619962221
Lüderitz,-26.6481,15.1594,74.79,43,2,10.69,NA,1619962378
Leningradskiy,69.3833,178.4167,15.46,94,100,10.36,RU,1619962378
Paamiut,61.994,-49.6678,37.96,59,1,5.68,GL,1619962378
Boca do Acre,-8.7522,-67.3978,77.38,83,100,0.94,BR,1619962379
Wuchi,29.3786,103.023,58.33,93,54,2.04,CN,1619962379
Dingle,10.9995,122.6711,79.52,81,2,7.36,PH,1619962379
Assiniboia,49.6334,-105.9845,42.8,65,100,10.36,CA,1619962380
Bonfim,3.0833,-59.95,75.24,88,100,6.62,BR,1619962380
Husavik,66.0449,-17.3389,37.4,52,75,5.75,IS,1619962380
Nuuk,64.1835,-51.7216,41.0,56,1,1.14,GL,1619962381
Kristinestad,62.2743,21.376,39.72,63,1,7.76,FI,1619962381
Cascais,38.6979,-9.4215,64.0,51,20,16.11,PT,1619962381
College,64.8569,-147.8028,32.0,59,40,6.91,US,1619962382
Ibrā’,22.6906,58.5334,94.42,15,100,14.9,OM,1619962382
Ambon City,-3.6954,128.1814,77.0,94,75,6.91,ID,1619962382
Karratha,-20.7377,116.8463,80.83,57,36,8.39,AU,1619962382
Longyearbyen,78.2186,15.6401,24.8,63,20,3.44,SJ,1619962383
San Miguel de Cozumel,20.5083,-86.9458,82.99,74,40,8.05,MX,1619962311
Puerto Baquerizo Moreno,-0.9,-89.6,75.15,74,25,9.57,EC,1619962383
Osoyoos,49.0331,-119.4524,46.4,66,1,3.44,CA,1619962294
Key West,24.5557,-81.7826,82.0,69,20,11.5,US,1619962200
San Fernando del Valle de Catamarca,-28.4696,-65.7852,77.49,41,1,2.98,AR,1619962384
Council Bluffs,41.2619,-95.8608,66.0,82,75,11.5,US,1619962384
Tecpan,14.7623,-90.9947,66.99,94,75,9.22,GT,1619962384
Kaniama,-7.5667,24.1833,77.47,74,83,7.31,CD,1619962385
City of San Pedro,14.35,121.0167,84.2,70,20,8.05,PH,1619962385
Sydney,-33.8679,151.2073,64.0,79,91,3.0,AU,1619962209
Tateyama,34.9833,139.8667,64.0,44,75,17.27,JP,1619962385
Yugorsk,61.3133,63.3319,44.01,31,11,11.03,RU,1619962386
Mayo,38.8876,-76.5119,68.0,39,20,5.75,US,1619962386
Sioux Lookout,50.1001,-91.917,39.2,81,75,3.44,CA,1619962387
Waingapu,-9.6567,120.2641,76.1,77,34,7.56,ID,1619962387
Verkhnyaya Inta,65.9811,60.3094,34.66,63,91,21.7,RU,1619962387
Caravelas,-17.7125,-39.2481,80.96,53,77,9.19,BR,1619962387
Mareeba,-17.0,145.4333,73.4,78,9,8.05,AU,1619962388
Faya,18.3851,42.4509,71.6,60,75,4.61,SA,1619962388
Nishihara,26.1842,127.7558,69.8,52,20,13.8,JP,1619962388
Tautira,-17.7333,-149.15,75.2,83,20,4.61,PF,1619962389
Mergen,49.1833,125.2167,53.74,41,83,5.17,CN,1619962389
Margate,51.3813,1.3862,54.0,51,16,6.76,GB,1619962225
Noyabrsk,63.1994,75.4507,36.7,99,100,12.28,RU,1619962389
Gwembe,-16.4975,27.6069,67.82,68,82,7.27,ZM,1619962390
Broken Hill,-31.95,141.4333,62.6,36,0,8.12,AU,1619962390
Aklavik,68.2191,-135.0107,23.0,86,99,4.61,CA,1619962390
Mandiana,10.6333,-8.6833,101.52,26,95,1.36,GN,1619962391
Dingzhou,38.5131,114.9956,57.2,47,0,4.47,CN,1619962391
Yar-Sale,66.8333,70.8333,32.76,91,85,11.74,RU,1619962391
Smithers,54.7804,-127.1743,30.2,93,90,2.3,CA,1619962385
Laguna,38.421,-121.4238,54.0,82,1,4.18,US,1619962392
Airai,-8.9266,125.4092,56.68,86,92,2.48,TL,1619962392
Waipawa,-41.4122,175.5153,48.2,93,4,5.75,NZ,1619962392
Rosario,-32.9468,-60.6393,75.99,73,0,6.91,AR,1619962377
San Jose,37.3394,-121.895,48.2,81,20,3.44,US,1619962231
Aksu,41.1231,80.2644,73.72,17,90,8.93,CN,1619962393
Eilat,29.5581,34.9482,100.4,19,0,14.97,IL,1619962393
Hibbing,47.4272,-92.9377,57.2,44,1,5.75,US,1619962394
Rakai,-0.72,31.4839,73.74,75,65,1.48,UG,1619962394
Kruisfontein,-34.0033,24.7314,71.53,43,0,9.17,ZA,1619962394
Jimo,36.3897,120.4622,51.8,50,0,6.71,CN,1619962395
Ereymentau,51.6199,73.1033,57.16,31,15,5.41,KZ,1619962395
Eureka,40.8021,-124.1637,52.0,91,46,3.0,US,1619962395
Mansfield,53.1333,-1.2,55.99,48,99,5.01,GB,1619962396
Burnie,-41.0667,145.9167,55.99,91,69,3.0,AU,1619962396
Isangel,-19.55,169.2667,75.2,88,90,4.61,VU,1619962396
Butajīra,8.1167,38.3667,65.25,79,99,3.76,ET,1619962396
Yumen,40.2833,97.2,58.37,22,77,14.79,CN,1619962397
Bahía Blanca,-38.7196,-62.2724,66.97,53,56,5.7,AR,1619962229
Skellefteå,64.7507,20.9528,42.8,45,75,10.36,SE,1619962397
Harboøre,56.6175,8.1807,55.0,59,98,1.99,DK,1619962398
Río Viejo,8.5874,-73.839,79.9,83,82,2.01,CO,1619962398
Nome,64.5011,-165.4064,30.2,59,1,11.5,US,1619962353
Mount Gambier,-37.8333,140.7667,53.6,94,90,6.91,AU,1619962398
Thyborøn,56.6985,8.2124,55.0,59,97,1.99,DK,1619962399
Tsiroanomandidy,-18.7667,46.0333,71.49,80,67,8.05,MG,1619962399
Agüimes,27.9054,-15.4461,71.6,53,40,23.02,ES,1619962399
Tucumã,-0.1833,-50.05,82.56,70,100,5.61,BR,1619962327
Saryagash,41.4511,69.1701,84.2,26,0,9.22,KZ,1619962400
Tallahassee,30.4383,-84.2807,71.01,78,90,5.75,US,1619962101
Goba,7.0167,39.9833,55.04,95,99,6.6,ET,1619962400
Vila do Maio,15.1333,-23.2167,77.0,57,20,25.32,CV,1619962400
Bairiki Village,1.3292,172.9752,82.4,83,40,6.91,KI,1619962401
Tshikapa,-6.4167,20.8,82.38,67,86,4.14,CD,1619962401
Rocha,-34.4833,-54.3333,70.29,62,26,8.01,UY,1619962401
Krasnosel'kup,65.7,82.4667,34.12,94,100,13.51,RU,1619962402
Udachny,66.4167,112.4,32.36,99,100,4.36,RU,1619962274
Saint-Pierre,-21.3393,55.4781,80.6,69,90,6.91,RE,1619962402
Moramanga,-18.9333,48.2,68.77,90,45,3.18,MG,1619962402
Port Hawkesbury,45.6169,-61.3485,48.0,46,20,14.97,CA,1619962403
Port Hardy,50.6996,-127.4199,44.6,100,75,2.3,CA,1619962403
Gerede,40.8008,32.1969,75.0,33,98,7.31,TR,1619962403
Devrek,41.2192,31.9558,87.8,33,0,5.75,TR,1619962404
Chapais,49.7834,-74.8492,19.4,79,90,13.8,CA,1619962404
Santa Vitória do Palmar,-33.5189,-53.3681,70.54,58,48,4.99,BR,1619962404
Mortka,59.3322,66.0214,47.23,72,76,3.65,RU,1619962405
Mackay,-21.15,149.2,69.8,88,90,8.05,AU,1619962401
Petropavlovsk-Kamchatskiy,53.0452,158.6483,32.0,100,90,6.71,RU,1619962405
Wajima,37.4,136.9,48.69,76,14,9.89,JP,1619962406
Wanaka,-44.7,169.15,44.22,71,94,2.3,NZ,1619962406
Mersing,2.4312,103.8405,84.2,79,91,2.3,MY,1619962406
Talnakh,69.4865,88.3972,22.05,95,15,4.43,RU,1619962406
Sneek,53.033,5.6589,51.01,63,98,13.0,NL,1619962164
Pemba,-12.974,40.5178,86.0,66,20,16.11,MZ,1619962407
Ruangwa,-10.0667,38.9333,77.85,90,57,3.4,TZ,1619962407
Rocky Mountain House,52.3668,-114.9188,35.6,93,15,4.61,CA,1619962179
New Ulm,44.3125,-94.4605,62.01,44,1,10.36,US,1619962408
Dzilam González,21.2833,-88.9333,83.39,62,53,10.76,MX,1619962408
Kodinsk,58.6881,99.1844,36.88,91,100,7.96,RU,1619962408
Sabang,5.8933,95.3214,85.08,73,94,13.51,ID,1619962408
Port Shepstone,-30.7414,30.455,70.0,66,3,8.75,ZA,1619962409
Pisco,-13.7,-76.2167,66.2,88,20,2.3,PE,1619962409
Belaya Gora,68.5333,146.4167,19.47,97,88,2.64,RU,1619962409
Sarangani,5.4033,125.4636,83.57,77,100,18.72,PH,1619962410
Alice Springs,-23.7,133.8833,73.99,39,100,3.44,AU,1619962160
Bira,49.0,132.4667,41.23,77,4,2.37,RU,1619962410
Waiouru,-39.4833,175.6667,37.42,61,4,2.75,NZ,1619962410
St. George's,12.0564,-61.7485,86.0,62,20,17.27,GD,1619962411
Orbetello,42.4408,11.2196,66.2,77,90,13.8,IT,1619962411
Mossamedes,-15.1961,12.1522,82.6,66,4,15.48,AO,1619962411
Gmina Świecie,53.4095,18.4474,42.01,72,100,11.01,PL,1619962412
Ozinki,51.1786,49.6769,66.54,49,100,6.85,RU,1619962412
Ixtapa,20.7,-105.2,60.8,82,1,5.75,MX,1619962330
Jalu,29.0331,21.5482,107.33,6,5,9.04,LY,1619962412
Dunajská Streda,47.9927,17.6121,57.0,63,100,10.0,SK,1619962413
Aktau,43.65,51.2,68.0,40,0,11.18,KZ,1619962413
Balakhta,55.38,91.6,36.57,84,94,7.65,RU,1619962413
Khorixas,-20.3667,14.9667,86.9,27,50,15.17,NA,1619962414
Tucuruí,-3.7661,-49.6725,83.16,68,86,3.83,BR,1619962414
Kaélé,10.1092,14.4508,105.8,21,20,4.61,CM,1619962414
Zherdevka,51.8486,41.4606,64.71,67,100,6.82,RU,1619962415
Thompson,55.7435,-97.8558,23.0,80,90,5.75,CA,1619962415
Lázaro Cárdenas,17.9583,-102.2,77.58,62,66,2.98,MX,1619962415
Payo,-3.7508,103.6372,74.34,97,100,1.54,ID,1619962416
Verkhnyaya Toyma,62.2349,44.9985,44.02,35,88,9.37,RU,1619962416
Limulunga,-15.0969,23.1376,76.33,56,99,5.39,ZM,1619962416
Māngrol,21.1167,70.1167,84.51,65,2,13.71,IN,1619962416
Pop,40.8736,71.1089,82.4,28,62,4.61,UZ,1619962417
Ambilobe,-13.2,49.05,79.48,83,56,1.07,MG,1619962417
Guadalupe y Calvo,26.1,-106.9667,52.66,45,50,2.17,MX,1619962299
Pahrump,36.2083,-115.9839,69.01,24,1,5.08,US,1619962418
Pangnirtung,66.1451,-65.7125,39.9,79,100,4.32,CA,1619962418
Nhulunbuy,-12.2333,136.7667,75.2,88,0,5.75,AU,1619962418
Lumphat,13.4878,106.9816,81.59,73,100,3.38,KH,1619962419
Bambanglipuro,-7.95,110.2833,78.82,84,92,5.3,ID,1619962419
Camargo,27.6667,-105.1667,68.14,28,100,8.28,MX,1619962419
Barcelos,41.5388,-8.6151,62.01,51,20,11.5,PT,1619962374
Mujiayingzi,42.1167,118.7833,54.19,22,72,15.1,CN,1619962420
Bathsheba,13.2167,-59.5167,82.4,57,20,18.41,BB,1619962420
Aldan,58.6031,125.3894,31.73,97,96,3.2,RU,1619962420
Beyneu,45.3167,55.2,76.57,10,52,8.19,KZ,1619962421
Menzel Salem,35.8567,8.4765,80.6,19,75,9.22,TN,1619962421
Yuncheng,35.0231,110.9928,56.41,63,100,3.56,CN,1619962421
Almaznyy,48.0448,40.045,77.0,41,40,8.95,RU,1619962421
Yura,-16.2522,-71.6797,51.8,37,0,8.05,PE,1619962422
Deputatsky,69.3,139.9,22.73,89,100,2.95,RU,1619962422
Pinega,64.7001,43.3936,39.67,34,88,11.99,RU,1619962422
Donji grad,45.8131,15.9775,71.6,46,0,17.27,HR,1619962423
Kolyvan',55.3053,82.7391,55.4,30,0,8.95,RU,1619962423
Bollnäs,61.3482,16.3946,55.0,39,100,1.01,SE,1619962423
Bosaso,11.2842,49.1816,86.0,79,40,6.87,SO,1619962424
Laredo,27.5064,-99.5075,68.0,82,1,14.7,US,1619962325
Naze,28.3667,129.4833,60.55,55,0,10.98,JP,1619962424
Redding,40.5865,-122.3917,60.8,44,1,9.22,US,1619962425
Gaza,31.5,34.4667,84.99,32,7,3.0,PS,1619962264
Sorong,-0.8833,131.25,80.08,82,78,5.68,ID,1619962425
Vostok,46.4856,135.8833,32.52,83,94,4.74,RU,1619962425
Languyan,5.2618,120.0807,79.92,80,100,1.77,PH,1619962426
Ulaanbaatar,47.9077,106.8832,37.4,65,40,13.42,MN,1619962238
Sangmélima,2.9333,11.9833,81.16,70,100,3.06,CM,1619962426
Kuril'sk,45.2333,147.8833,31.95,97,100,14.27,RU,1619962427
Itaituba,-4.2761,-55.9836,82.4,83,75,4.61,BR,1619962427
Kudahuvadhoo,2.6708,72.8944,84.2,64,47,2.19,MV,1619962427
Malinovskiy,61.1953,62.8397,43.99,31,5,10.54,RU,1619962428
Marabu,4.4148,114.0089,80.6,83,40,2.3,MY,1619962428
Korla,41.7597,86.1469,65.91,26,11,6.11,CN,1619962428
Chaumont,48.1167,5.1333,54.0,53,72,7.0,FR,1619962429
Zheleznodorozhnyy,55.7503,38.0042,55.99,47,0,8.95,RU,1619962429
Rovaniemi,66.5,25.7167,39.2,38,0,5.75,FI,1619962429
Bārān,25.1,76.5167,93.72,21,51,8.25,IN,1619962430
Tananger,58.9333,5.6,46.4,61,75,13.8,NO,1619962430
Haines Junction,60.7522,-137.5108,21.2,93,36,1.5,CA,1619962430
Lata,40.1629,-8.3327,66.99,45,40,12.66,PT,1619962431
Aksarka,66.5606,67.7975,32.72,98,100,12.17,RU,1619962431
Akureyri,65.6835,-18.0878,37.4,52,75,5.75,IS,1619962431
Muros,42.7762,-9.0603,63.0,49,4,10.0,ES,1619962432
Ponta Delgada,37.7333,-25.6667,62.6,94,75,10.36,PT,1619962432
Manono,-7.3,27.4167,77.68,81,98,7.02,CD,1619962432
Rodrigues Alves,-7.738,-72.6509,82.18,65,95,2.28,BR,1619962433
Yakima,46.4665,-120.6678,44.01,65,1,5.32,US,1619962433
Kiunga,-6.1219,141.2906,73.4,99,100,1.97,PG,1619962433
Camrose,53.0168,-112.8353,37.4,93,78,9.22,CA,1619962434
Al Bardīyah,31.7561,25.0865,87.89,26,25,6.62,LY,1619962434
Kloulklubed,7.0419,134.2556,77.0,94,90,4.61,PW,1619962435
Cap Malheureux,-19.9842,57.6142,81.0,80,7,1.99,MU,1619962436
Atar,20.5169,-13.0499,96.55,11,8,7.2,MR,1619962436
Nioro,13.35,-15.75,98.22,15,7,8.05,GM,1619962436
Altay,47.8667,88.1167,39.69,36,0,9.95,CN,1619962437
Carutapera,-1.195,-46.02,80.47,79,96,4.68,BR,1619962437
Loveland,40.3978,-105.075,61.0,58,1,12.66,US,1619962437
Najrān,17.4924,44.1277,89.6,13,75,4.61,SA,1619962438
Campana,-34.1687,-58.9591,69.01,72,100,11.01,AR,1619962438
Tlacotepec (San Mateo),20.0667,-97.8667,70.74,64,68,0.87,MX,1619962438
Cantagallo,7.376,-73.9196,76.78,91,96,0.92,CO,1619962439
Rio Grande,-32.035,-52.0986,72.0,64,0,1.14,BR,1619962439
Locri,38.2414,16.2623,69.8,68,20,17.27,IT,1619962439
Palenque/Temp,17.5167,-91.9667,78.8,89,75,3.87,MX,1619962440
Hirara,24.8,125.2833,72.43,75,99,19.84,JP,1619962440
Siguiri,11.6667,-9.5,101.43,25,71,1.25,GN,1619962440
Truth or Consequences,33.1284,-107.2528,68.0,20,1,0.45,US,1619962440
Valentín Gómez Farías,28.2167,-106.5833,69.01,32,97,13.4,MX,1619962441
Nampula,-15.1165,39.2666,80.01,73,75,16.11,MZ,1619962441
Adré,13.4667,22.2,100.31,7,3,7.31,TD,1619962441
Luena,-11.7833,19.9167,71.6,83,75,4.61,AO,1619962226
Mae Hong Son,19.3003,97.9685,89.6,51,20,1.81,TH,1619962442
Jumla,29.2747,82.1838,53.87,83,38,4.83,NP,1619962442
Rincon,32.296,-81.2354,73.99,83,75,9.22,US,1619962443
Makakilo City,21.3469,-158.0858,75.2,88,75,3.44,US,1619962150
Richards Bay,-28.783,32.0377,70.57,68,11,5.03,ZA,1619962443
Zyryanka,65.75,150.85,22.77,93,47,7.99,RU,1619962444
Yinchuan,38.4681,106.2731,66.79,49,46,8.81,CN,1619962444
Heihe,50.2441,127.4902,50.0,43,0,8.95,CN,1619962444
Bethel,41.3712,-73.414,64.4,32,1,10.36,US,1619962205
Qaqortoq,60.7167,-46.0333,46.4,21,100,42.57,GL,1619962445
Solapur,17.6833,75.9167,88.66,35,100,11.03,IN,1619962445
Saint-Louis,16.3333,-15.0,89.6,31,0,2.3,SN,1619962445
Portobelo,9.55,-79.65,80.01,99,16,1.01,PA,1619962446
Alyangula,-13.8483,136.4192,75.2,100,90,13.58,AU,1619962446
Cabra,37.4725,-4.4421,72.0,35,7,1.01,ES,1619962446
Roseburg,43.2165,-123.3417,51.8,71,90,0.81,US,1619962331
Mitsamiouli,-11.3847,43.2844,87.8,74,40,16.11,KM,1619962447
Anakapalle,17.6833,83.0167,86.0,79,75,8.05,IN,1619962447
Arzgir,45.3728,44.2206,76.57,40,16,8.7,RU,1619962448
Kokkola,63.8385,23.1307,45.0,36,0,12.66,FI,1619962448
Kysyl-Syr,63.8986,122.7617,32.54,99,100,2.3,RU,1619962448
Fiumicino,41.7675,12.2291,64.4,68,40,12.66,IT,1619962448
