City,Lat,Lng,Max Temp,Humidity,Clouds,Wind Speed,Country,Date
Labis,2.385,103.021,77.09,91,26,1.59,MY,1619872477
Puerto Ayora,-0.7393,-90.3518,73.99,96,36,8.75,EC,1619872419
Tombouctou,20.0,-3.0,98.92,19,43,5.44,ML,1619872478
Black River,18.0264,-77.8487,82.4,74,20,2.3,JM,1619872478
Salym,60.0625,71.4789,43.39,58,99,2.06,RU,1619872478
Puerto Madero,14.7208,-92.4215,73.4,100,75,3.49,MX,1619872479
Rikitea,-23.1203,-134.9692,76.08,88,45,17.36,PF,1619872379
Grindavik,63.8424,-22.4338,39.2,56,40,16.11,IS,1619872405
Cape Town,-33.9258,18.4232,72.0,46,0,8.05,ZA,1619872200
Port Hawkesbury,45.6169,-61.3485,39.0,93,90,23.02,CA,1619872479
Hobart,-42.8794,147.3294,60.8,59,0,6.91,AU,1619872203
Ushuaia,-54.8,-68.3,39.2,93,75,2.3,AR,1619872142
Atuona,-9.8,-139.0333,77.85,73,4,3.85,PF,1619872420
Lavrentiya,65.5833,-171.0,8.82,90,75,5.48,RU,1619872417
Navashino,55.5292,42.2003,51.04,62,89,11.27,RU,1619872480
Tuktoyaktuk,69.4541,-133.0374,3.43,99,99,4.97,CA,1619872431
East London,-33.0153,27.9116,69.8,52,0,9.22,ZA,1619872439
Busselton,-33.65,115.3333,60.01,91,70,2.62,AU,1619872403
Ulladulla,-35.35,150.4667,57.99,100,99,6.42,AU,1619872481
Hastings,50.8552,0.5729,52.0,61,54,4.0,GB,1619872481
Ribeira Grande,38.5167,-28.7,60.8,88,75,11.5,PT,1619872408
George Town,5.4112,100.3354,84.2,94,20,3.44,MY,1619872412
Poum,-20.2333,164.0167,76.15,70,98,10.74,NC,1619872456
Port Alfred,-33.5906,26.891,67.69,53,0,9.31,ZA,1619872406
Barrow,71.2906,-156.7887,19.4,93,90,9.22,US,1619872404
San Quintín,30.4833,-115.95,59.47,86,57,10.09,MX,1619872416
Touros,-5.1989,-35.4608,82.4,69,40,12.66,BR,1619872461
Yellowknife,62.456,-114.3525,19.4,86,90,11.5,CA,1619872410
Ventspils,57.3894,21.5606,48.2,61,0,13.8,LV,1619872482
Elhovo,42.1667,26.5667,78.8,53,75,4.61,BG,1619872483
Kruisfontein,-34.0033,24.7314,68.0,54,0,10.0,ZA,1619872407
Roald,62.5833,6.1333,45.0,57,75,12.66,NO,1619872483
Maragogi,-9.0122,-35.2225,81.97,74,100,12.06,BR,1619872484
Albany,42.6001,-73.9662,39.99,76,89,15.05,US,1619872160
Ambon City,-3.6954,128.1814,81.66,78,26,8.99,ID,1619872405
Bulawayo,-20.15,28.5833,79.88,32,58,7.96,ZW,1619872345
Norman Wells,65.282,-126.8329,17.6,86,20,3.69,CA,1619872442
Lagoa,39.05,-27.9833,60.46,83,100,13.69,PT,1619872484
Lebu,-37.6167,-73.65,55.63,95,100,12.48,CL,1619872485
Mataura,-46.1927,168.8643,44.01,86,0,4.0,NZ,1619872406
Haines Junction,60.7522,-137.5108,28.4,86,100,3.36,CA,1619872433
Punta Arenas,-53.15,-70.9167,35.6,87,40,4.61,CL,1619872390
Mapiri,-15.25,-68.1667,69.73,72,81,0.34,BO,1619872485
Richards Bay,-28.783,32.0377,70.57,63,18,13.13,ZA,1619872486
Port Elizabeth,-33.918,25.5701,68.0,49,0,11.5,ZA,1619872486
Sinop Province,41.7711,34.8709,70.41,48,45,6.64,TR,1619872486
Porto-Novo,6.4965,2.6036,89.6,70,40,14.97,BJ,1619872487
Saint-Leu,-21.15,55.2833,82.4,69,75,5.75,RE,1619872487
Hithadhoo,-0.6,73.0833,84.67,69,100,6.71,MV,1619872427
Viedma,-40.8135,-62.9967,66.63,44,60,9.69,AR,1619872307
Ilulissat,69.2167,-51.1,28.4,86,20,4.61,GL,1619872414
Bredasdorp,-34.5322,20.0403,68.0,42,0,8.05,ZA,1619872451
Laas,46.6166,10.7002,69.8,66,40,12.66,IT,1619872488
Vaini,-21.2,-175.2,75.2,94,40,12.66,TO,1619872439
Cidreira,-30.1811,-50.2056,69.39,63,0,14.29,BR,1619872429
Minusinsk,53.7103,91.6875,53.6,47,0,6.71,RU,1619872488
Wasilla,61.5814,-149.4394,32.0,74,1,3.44,US,1619872488
Shubarshi,48.5872,57.1869,69.33,22,2,13.38,KZ,1619872489
Niamey,13.5137,2.1098,105.8,17,20,13.8,NE,1619872489
Laje,-10.1833,-40.9667,74.57,68,100,17.13,BR,1619872489
Waingapu,-9.6567,120.2641,78.49,82,26,8.37,ID,1619872435
Bluff,-46.6,168.3333,44.01,86,3,4.0,NZ,1619872412
Geraldton,-28.7667,114.6,68.0,49,99,12.66,AU,1619872450
San Jerónimo,-11.9472,-75.2829,51.28,68,17,1.05,PE,1619872490
Pisco,-13.7,-76.2167,64.4,82,10,2.3,PE,1619872490
Hilo,19.7297,-155.09,71.6,73,40,3.42,US,1619872222
Mar del Plata,-38.0023,-57.5575,60.01,100,20,9.22,AR,1619872436
Pincher Creek,49.4833,-113.952,50.0,57,75,11.5,CA,1619872205
Pointe-Noire,-4.7761,11.8635,86.0,70,75,10.36,CG,1619872491
Sande,53.5049,8.0142,50.0,62,63,14.97,DE,1619872492
Merauke,-8.4667,140.3333,77.95,87,45,12.8,ID,1619872492
Chokurdakh,70.6333,147.9167,2.21,98,8,4.59,RU,1619872406
Karpogory,64.0019,44.4451,40.35,37,100,11.74,RU,1619872492
Langarūd,37.197,50.1535,64.4,94,90,6.91,IR,1619872493
Soledade,-28.8183,-52.5103,64.0,56,0,8.37,BR,1619872493
Hasaki,35.7333,140.8333,60.8,94,75,11.5,JP,1619872493
Acaraú,-2.8856,-40.12,80.19,79,100,9.28,BR,1619872409
Tasiilaq,65.6145,-37.6368,26.6,93,75,3.44,GL,1619872410
Carnarvon,-24.8667,113.6333,69.8,73,100,10.36,AU,1619872437
Tessalit,20.1986,1.0114,99.36,15,93,16.96,ML,1619872494
Tarnów,50.0138,20.987,57.0,85,98,3.0,PL,1619872494
Bengkulu,-3.8004,102.2655,79.7,85,100,4.12,ID,1619872229
Talnakh,69.4865,88.3972,25.27,89,23,4.38,RU,1619872390
Padang,-0.9492,100.3543,77.0,94,40,4.61,ID,1619872495
Kargil,34.5667,76.1,46.9,36,35,7.4,IN,1619872495
Nikolskoye,59.7035,30.7861,46.4,39,0,15.66,RU,1619872423
Qaanaaq,77.484,-69.3632,32.63,62,100,7.72,GL,1619872400
Saint Paul Harbor,57.79,-152.4072,30.2,93,1,6.91,US,1619872496
Goya,-29.14,-59.2626,69.37,52,0,7.96,AR,1619872256
Codrington,-38.2667,141.9667,64.9,46,49,13.11,AU,1619872497
Okhotsk,59.3833,143.3,31.68,87,100,1.66,RU,1619872497
Houma,29.5958,-90.7195,71.01,83,90,4.61,US,1619872497
Airai,-8.9266,125.4092,58.78,92,100,3.22,TL,1619872497
Teguise,29.0605,-13.564,68.0,68,40,17.27,ES,1619872498
Hermanus,-34.4187,19.2345,73.0,48,0,1.99,ZA,1619872420
Torbay,47.6666,-52.7314,52.0,93,75,19.57,CA,1619872498
Saldanha,-33.0117,17.9442,75.2,35,6,6.91,ZA,1619872499
Coquimbo,-29.9533,-71.3436,53.6,76,0,5.75,CL,1619872461
Aksu,41.1231,80.2644,85.32,9,52,7.45,CN,1619872499
Loralai,30.3705,68.598,82.8,16,78,13.62,PK,1619872499
Nkhata Bay,-11.6066,34.2907,80.22,66,99,5.06,MW,1619872500
Bethel,41.3712,-73.414,44.6,53,1,10.36,US,1619872500
Shache,38.4167,77.2406,83.37,12,100,4.32,CN,1619872415
Leningradskiy,69.3833,178.4167,13.95,91,100,19.28,RU,1619872500
Qaqortoq,60.7167,-46.0333,48.2,21,20,36.82,GL,1619872501
Tiksi,71.6872,128.8694,20.71,98,99,3.42,RU,1619872411
Komagane,35.7296,137.9396,54.0,100,100,8.99,JP,1619872501
Erzin,36.9559,36.2,73.99,77,99,14.0,TR,1619872501
Namatanai,-3.6667,152.4333,79.63,79,97,1.16,PG,1619872414
Wanning,18.8003,110.3967,79.27,87,14,6.58,CN,1619872460
Norsup,-16.0667,167.3833,77.81,83,100,7.9,VU,1619872502
Kavieng,-2.5744,150.7967,82.85,72,76,4.74,PG,1619872456
Mendez,14.13,120.9052,86.0,70,20,6.91,PH,1619872502
Noumea,-22.2763,166.4572,77.0,78,20,6.91,NC,1619872205
Khasan,42.4308,130.6434,42.94,81,100,4.63,RU,1619872503
New Norfolk,-42.7826,147.0587,55.99,60,100,1.99,AU,1619872431
Provideniya,64.3833,-173.3,21.16,76,99,5.91,RU,1619872435
Kaitangata,-46.2817,169.8464,51.01,78,0,3.0,NZ,1619872458
Xiongzhou,25.1167,114.3,74.17,64,60,1.92,CN,1619872504
Bambous Virieux,-20.3428,57.7575,81.0,78,75,11.5,MU,1619872443
Constitución,-35.3333,-72.4167,53.82,95,100,5.14,CL,1619872308
Manokwari,-0.8667,134.0833,80.24,80,100,6.26,ID,1619872505
Vila Franca do Campo,37.7167,-25.4333,60.8,72,20,8.05,PT,1619872454
Severo-Kuril'sk,50.6789,156.125,35.73,97,100,21.05,RU,1619872505
Mandan,46.8267,-100.8896,57.99,47,1,13.8,US,1619872505
Northview,43.0456,-85.6006,45.0,75,40,8.05,US,1619872506
Ubalá,4.7478,-72.5369,75.13,83,29,2.64,CO,1619872506
Manadhoo,5.7667,73.3833,84.45,69,94,3.78,MV,1619872507
Kapaa,22.0752,-159.319,73.4,88,90,9.22,US,1619872398
Huinan,42.6225,126.2614,43.14,79,98,3.02,CN,1619872507
Ostrovnoy,68.0531,39.5131,28.74,70,100,13.56,RU,1619872507
Ambovombe,-25.1667,46.0833,78.42,68,100,11.18,MG,1619872508
Micheweni,-4.9667,39.8333,83.44,72,100,10.4,TZ,1619872508
Caravelas,-17.7125,-39.2481,76.48,71,100,11.7,BR,1619872508
Flinders,-34.5833,150.8552,66.0,86,10,1.01,AU,1619872508
Isangel,-19.55,169.2667,76.48,83,100,18.34,VU,1619872509
Deer Lake,49.1667,-57.4316,35.6,100,90,13.8,CA,1619872509
Arraial do Cabo,-22.9661,-42.0278,73.4,73,75,4.61,BR,1619872440
Quatre Cocos,-20.2078,57.7625,81.0,78,75,11.5,MU,1619872509
Saint-Philippe,-21.3585,55.7679,82.4,69,75,5.75,RE,1619872418
Avera,33.194,-82.5271,60.8,67,1,3.44,US,1619872510
Ewo,-0.8725,14.8206,80.64,68,100,5.19,CG,1619872510
Abalak,58.1286,68.5944,50.7,29,100,6.29,RU,1619872511
Jamestown,42.097,-79.2353,39.99,75,1,5.75,US,1619872163
High Level,58.5169,-117.136,35.6,87,20,11.5,CA,1619872511
Riyadh,24.6877,46.7219,98.6,12,0,8.05,SA,1619872305
Kargasok,59.0556,80.8572,40.14,75,91,16.2,RU,1619872326
Fortuna,40.5982,-124.1573,52.0,100,90,3.44,US,1619872352
Husavik,66.0449,-17.3389,33.8,93,75,4.61,IS,1619872441
Yangambi,0.8102,24.4336,70.63,99,100,2.44,CD,1619872512
Varkaus,62.3153,27.873,41.0,26,0,13.8,FI,1619872512
Upernavik,72.7868,-56.1549,31.62,70,83,4.59,GL,1619872512
Luba,3.4568,8.5547,86.0,79,40,9.22,GQ,1619872513
Pevek,69.7008,170.3133,6.3,96,100,7.72,RU,1619872442
Athabasca,54.7169,-113.2854,41.0,75,100,5.75,CA,1619872513
Petropavlovsk-Kamchatskiy,53.0452,158.6483,32.0,100,90,4.47,RU,1619872236
San Rafael,-34.6177,-68.3301,63.91,46,45,2.73,AR,1619872333
Kirakira,-10.4544,161.9205,78.46,87,100,8.34,SB,1619872514
Chikwawa,-16.0335,34.8009,80.6,69,75,8.05,MW,1619872514
Thinadhoo,0.5333,72.9333,84.52,64,96,3.83,MV,1619872514
Broome,42.2506,-75.833,36.0,80,90,13.8,US,1619872428
Tuatapere,-46.1333,167.6833,44.01,86,2,4.0,NZ,1619872402
San Jose,37.3394,-121.895,52.0,85,61,1.63,US,1619872389
Vrå,57.3476,9.9515,51.8,54,99,5.75,DK,1619872515
Chicama,-7.8447,-79.1469,62.6,94,75,5.75,PE,1619872515
Talara,-4.5772,-81.2719,70.74,78,99,17.0,PE,1619872516
Fare,-16.7,-151.0167,80.73,72,35,7.99,PF,1619872516
Srīmushnam,11.4,79.4167,87.13,59,2,13.2,IN,1619872516
Innisfail,-17.5333,146.0333,69.33,91,44,5.32,AU,1619872517
Deyang,31.1302,104.382,82.99,1,100,3.89,CN,1619872517
Lorengau,-2.0226,147.2712,80.98,77,94,0.38,PG,1619872517
Verāval,20.9,70.3667,86.32,59,84,11.21,IN,1619872518
Beloha,-25.1667,45.05,79.38,57,74,15.75,MG,1619872518
Vila Velha,-20.3297,-40.2925,73.4,78,75,9.22,BR,1619872430
Shitanjing,39.2342,106.3439,67.93,21,82,4.18,CN,1619872519
Katsuura,35.1333,140.3,66.99,88,75,12.66,JP,1619872519
Manbij,36.5281,37.9549,82.4,20,40,19.57,SY,1619872519
Ca Mau,9.1769,105.15,83.5,73,83,8.48,VN,1619872519
Tomatlán,19.9333,-105.25,67.73,83,60,2.89,MX,1619872520
Peleduy,59.6289,112.7406,34.41,98,100,4.07,RU,1619872520
Camacha,33.0833,-16.3333,64.4,55,40,8.05,PT,1619872443
Atar,20.5169,-13.0499,86.0,28,0,16.11,MR,1619872520
Gizo Government Station,-8.103,156.8419,82.42,75,100,7.76,SB,1619872521
Dikson,73.5069,80.5464,20.44,94,25,6.69,RU,1619872386
Esperance,-33.8667,121.9,57.2,82,13,5.75,AU,1619872428
Qandala,11.472,49.8728,86.79,58,99,4.12,SO,1619872521
Vestmannaeyjar,63.4427,-20.2734,35.6,87,90,11.5,IS,1619872441
Port Lincoln,-34.7333,135.8667,60.58,74,0,17.74,AU,1619872522
Avarua,-21.2078,-159.775,77.0,83,75,6.91,CK,1619872444
São João da Barra,-21.6403,-41.0511,73.4,73,40,9.22,BR,1619872522
Luangwa,-15.6167,30.4167,90.95,42,13,5.86,ZM,1619872523
Guarujá,-23.9931,-46.2564,71.6,73,0,2.3,BR,1619872523
Aklavik,68.2191,-135.0107,15.8,100,99,8.05,CA,1619872422
Talaya,61.3833,152.75,25.02,92,99,1.14,RU,1619872399
Saskylakh,71.9167,114.0833,31.69,96,100,4.65,RU,1619872426
Chimbote,-9.0853,-78.5783,66.42,89,47,6.96,PE,1619872331
Goderich,43.7501,-81.7165,39.2,81,54,5.75,CA,1619872525
Ponta do Sol,32.6667,-17.1,64.99,57,40,5.01,PT,1619872447
San Patricio,28.017,-97.5169,71.6,100,90,11.5,US,1619872435
Sorochinsk,52.4338,53.1583,64.4,40,100,15.32,RU,1619872526
Kalevala,65.2,31.1667,33.12,80,100,18.54,RU,1619872526
Batagay,67.6333,134.6333,30.81,80,100,2.89,RU,1619872527
Borovskoy,53.8,64.15,61.57,32,45,13.73,KZ,1619872527
Velsk,61.0701,42.0983,45.03,40,57,13.58,RU,1619872527
Hirara,24.8,125.2833,75.2,88,75,3.44,JP,1619872417
São Filipe,14.8961,-24.4956,73.29,71,2,10.45,CV,1619872528
Hong Kong,22.2855,114.1577,80.01,71,100,7.16,HK,1619872528
Saint-Pierre,-21.3393,55.4781,82.4,69,75,5.75,RE,1619872306
Larsnes,62.2028,5.5773,45.0,57,75,12.66,NO,1619872529
Guiratinga,-16.3494,-53.7583,78.82,62,100,6.69,BR,1619872529
Romanovo,52.6182,81.2271,47.17,34,92,17.69,RU,1619872529
Casa Grande,32.8795,-111.7573,69.8,26,1,7.58,US,1619872530
Thompson,55.7435,-97.8558,19.4,93,90,9.22,CA,1619872462
Road Town,18.4167,-64.6167,82.0,78,40,8.05,VG,1619872530
Nautla,20.2167,-96.7833,75.47,88,23,4.79,MX,1619872530
Gharghoda,22.1667,83.35,95.36,14,8,4.85,IN,1619872531
Haapsalu,58.9431,23.5414,46.0,71,37,11.01,EE,1619872531
Arrondissement de Narbonne,43.0833,2.8333,55.99,61,100,15.99,FR,1619872531
Victoria Point,-27.5833,153.3,64.99,96,96,1.01,AU,1619872532
Novotroitsk,51.203,58.3266,71.6,17,0,15.66,RU,1619872532
Cherskiy,68.75,161.3,0.77,99,38,2.26,RU,1619872390
Aljezur,37.3191,-8.8033,61.74,47,92,11.18,PT,1619872532
Berlevåg,70.8578,29.0864,35.26,75,100,17.2,NO,1619872533
Bud,39.447,-86.1758,44.01,61,1,8.05,US,1619872533
Jieshi,22.8134,115.8257,75.94,82,96,6.51,CN,1619872533
Ferme-Neuve,46.7001,-75.4493,30.2,40,31,9.22,CA,1619872534
Forsytheganj,52.6333,29.7333,54.99,61,100,2.21,BY,1619872436
Ciudad General Terán,25.2667,-99.6833,66.81,83,34,3.29,MX,1619872534
Korla,41.7597,86.1469,78.84,18,100,15.03,CN,1619872459
Butaritari,3.0707,172.7902,82.81,74,100,8.9,KI,1619872417
Chui,-33.6971,-53.4616,66.99,77,0,7.4,UY,1619872421
Bukachacha,52.9833,116.9167,45.59,51,100,1.57,RU,1619872535
Cockburn Town,21.4612,-71.1419,78.8,73,40,9.22,TC,1619872535
Mahon,39.8885,4.2658,60.8,77,40,14.97,ES,1619872535
Noyabrsk,63.1994,75.4507,31.39,87,100,10.87,RU,1619872536
Winnemucca,40.973,-117.7357,57.2,24,1,6.91,US,1619872536
Iwaki,37.05,140.8833,59.0,86,100,1.01,JP,1619872536
Manzhouli,49.6,117.4333,48.36,42,100,9.82,CN,1619872537
Twentynine Palms,34.1356,-116.0542,71.01,17,1,5.75,US,1619872537
Khatanga,71.9667,102.5,26.33,91,77,6.04,RU,1619872426
Hurricane,37.1753,-113.2899,64.4,53,1,6.91,US,1619872537
Salalah,17.0151,54.0924,87.8,70,75,12.66,OM,1619872442
Khovd,48.0056,91.6419,55.0,25,0,20.94,MN,1619872538
Bubaque,11.2833,-15.8333,81.21,53,50,7.67,GW,1619872538
Kapit,2.0167,112.9333,75.94,95,100,0.25,MY,1619872538
Yar-Sale,66.8333,70.8333,19.71,88,13,3.27,RU,1619872392
Bandarbeyla,9.4942,50.8122,85.8,66,100,11.18,SO,1619872539
Akdepe,42.0551,59.3788,77.0,15,0,16.11,TM,1619872539
Mattru,7.6244,-11.8332,92.98,48,89,3.62,SL,1619872539
Labuan,5.2767,115.2417,75.2,100,40,3.44,MY,1619872540
Morón,-34.6534,-58.6198,66.99,73,0,4.0,AR,1619872412
Gimli,50.6336,-96.9907,37.4,70,75,3.44,CA,1619872540
Hofn,64.2539,-15.2082,39.81,57,66,13.31,IS,1619872540
Saint George,37.1041,-113.5841,64.4,27,1,3.24,US,1619872541
Itoman,26.1247,127.6694,75.2,94,75,6.91,JP,1619872541
Magaria,12.9983,8.9099,103.73,5,5,6.85,NE,1619872541
Taltal,-25.4,-70.4833,65.57,67,0,2.42,CL,1619872542
Bambanglipuro,-7.95,110.2833,78.48,86,26,8.34,ID,1619872542
Souillac,-20.5167,57.5167,80.6,78,75,11.5,MU,1619872419
Nanortalik,60.1432,-45.2371,39.81,60,65,10.45,GL,1619872424
Porto Tolle,44.9497,12.3245,73.0,64,39,5.01,IT,1619872542
Dingle,10.9995,122.6711,79.32,78,8,6.76,PH,1619872543
Te Anau,-45.4167,167.7167,39.78,87,15,1.21,NZ,1619872543
Wahiawā,21.5028,-158.0236,73.0,88,75,3.44,US,1619872388
Sidi Ali,36.0998,0.4206,63.48,55,39,20.31,DZ,1619872544
Stornoway,58.2093,-6.3865,46.99,57,40,6.91,GB,1619872544
Olafsvik,64.8945,-23.7142,37.35,66,94,28.19,IS,1619872545
Longyearbyen,78.2186,15.6401,19.4,58,20,6.91,SJ,1619872428
Kichera,55.9375,110.0997,34.79,91,100,1.28,RU,1619872545
Marsh Harbour,26.5412,-77.0636,78.15,72,37,9.33,BS,1619872413
Ternate,0.8,127.4,80.78,79,100,1.9,ID,1619872546
Mazagão,-0.115,-51.2894,77.0,94,75,4.61,BR,1619872546
Nagato,34.3833,131.2,59.0,54,75,13.8,JP,1619872546
Nome,64.5011,-165.4064,23.0,74,90,8.05,US,1619872546
Voznesen'ye,61.0106,35.4781,39.99,53,100,13.06,RU,1619872547
Abonnema,4.7084,6.7931,87.8,74,75,5.75,NG,1619872547
Doctor Juan Manuel Frutos,-25.3667,-55.8,69.51,56,72,8.03,PY,1619872547
Coyhaique,-45.5752,-72.0662,44.6,93,40,3.44,CL,1619872418
Teya,60.3778,92.6267,36.05,88,98,9.95,RU,1619872548
Arrecife,28.963,-13.5477,68.0,68,40,17.27,ES,1619872548
Narsaq,60.9167,-46.05,48.2,21,20,36.82,GL,1619872448
Głowno,51.9646,19.7157,48.99,81,40,8.05,PL,1619872548
Kingisepp,59.3733,28.6134,47.7,37,48,11.25,RU,1619872336
Lüderitz,-26.6481,15.1594,82.45,29,0,6.78,NA,1619872549
Marawi,7.9986,124.2928,81.0,82,100,4.0,PH,1619872458
Udachny,66.4167,112.4,32.04,98,100,7.34,RU,1619872440
Rome,43.2128,-75.4557,35.6,75,90,9.22,US,1619872203
Saint-Augustin,51.226,-58.6502,35.85,96,100,20.27,CA,1619872549
Kloulklubed,7.0419,134.2556,80.6,83,75,5.75,PW,1619872550
Thohoyandou,-22.9456,30.485,64.38,64,99,10.18,ZA,1619872550
Puerto Vallarta,20.6204,-105.2307,75.0,88,90,2.51,MX,1619872550
Ribas do Rio Pardo,-20.4431,-53.7592,80.49,34,0,8.81,BR,1619872551
Clyde River,70.4692,-68.5914,14.0,100,90,3.44,CA,1619872430
Quesada,10.3238,-84.4271,68.0,100,0,2.3,CR,1619872551
Tegul'det,57.3064,88.1667,45.09,79,100,3.98,RU,1619872551
Shingū,33.7333,135.9833,63.3,77,0,11.25,JP,1619872552
Pucara,-15.9803,-71.4606,55.4,21,0,18.41,PE,1619872552
Ola,59.5833,151.2833,32.16,90,100,4.03,RU,1619872552
Xiaoweizhai,26.1903,107.5125,68.97,88,100,3.74,CN,1619872553
Aban,56.67,96.06,43.07,77,100,4.47,RU,1619872553
Nchelenge,-9.3451,28.734,76.41,75,100,4.16,ZM,1619872553
Rio Grande,-32.035,-52.0986,64.4,100,0,9.22,BR,1619872412
Castro,-24.7911,-50.0119,59.43,78,92,9.37,BR,1619872453
Fes,34.0372,-4.9998,64.4,48,75,8.05,MA,1619872554
Yulara,-25.2406,130.9889,64.4,32,99,4.61,AU,1619872554
Iqaluit,63.7506,-68.5145,37.4,70,75,18.41,CA,1619872554
Sobolevo,54.4299,31.8996,51.39,52,99,1.05,RU,1619872555
Tura,25.5198,90.2201,77.54,55,10,5.17,IN,1619872555
Oxbow,49.2333,-102.1676,46.4,66,1,9.22,CA,1619872555
Campo Largo,-25.4586,-49.5283,61.0,72,20,8.05,BR,1619872556
Portland,45.5234,-122.6762,51.01,85,63,1.99,US,1619872556
Ilebo,-4.3167,20.5833,80.76,81,59,3.76,CD,1619872556
Mana,5.6592,-53.7767,77.61,86,100,2.35,GF,1619872557
Ancud,-41.8697,-73.8203,54.48,84,100,13.06,CL,1619872433
Czechowice-Dziedzice,49.9134,19.0048,52.0,99,100,4.88,PL,1619872557
Örnsköldsvik,63.2909,18.7153,41.0,33,90,8.05,SE,1619872557
Vung Tau,10.346,107.0843,83.84,75,51,14.14,VN,1619872558
Mezen',65.8522,44.24,32.23,91,100,14.56,RU,1619872558
Kovdor,67.5662,30.4758,31.96,47,80,8.68,RU,1619872558
Kumul,42.8,93.45,83.98,13,0,12.97,CN,1619872444
San Vicente,-26.6167,-54.1333,70.63,49,0,4.68,AR,1619872559
Puerto Varas,-41.3195,-72.9854,53.6,94,75,6.91,CL,1619872279
Biltine,14.5333,20.9167,105.64,6,55,9.42,TD,1619872457
Firminy,45.3873,4.2907,50.0,87,90,5.75,FR,1619872559
Auki,-8.7676,160.7034,76.69,87,100,3.42,SB,1619872560
Ransang,8.9603,117.5828,81.19,78,33,4.41,PH,1619872560
Raton,36.9034,-104.4391,33.8,51,1,4.61,US,1619872307
Puerto Ayacucho,5.6639,-67.6236,77.77,83,72,1.61,VE,1619872560
Lerwick,60.1545,-1.1494,44.6,65,40,4.61,GB,1619872561
Pontianak,-0.0333,109.3333,84.2,79,20,3.44,ID,1619872561
Urucará,-2.5364,-57.76,79.9,80,94,4.18,BR,1619872561
Itarema,-2.9248,-39.9167,80.02,80,100,8.99,BR,1619872562
Tingi,-11.3,35.0333,71.53,80,95,2.77,TZ,1619872562
Port Blair,11.6667,92.75,84.85,68,56,4.56,IN,1619872562
Beringovskiy,63.05,179.3167,24.37,89,100,13.27,RU,1619872433
Lázaro Cárdenas,17.9583,-102.2,76.71,75,97,2.82,MX,1619872563
Saint Anthony,45.0205,-93.218,59.0,44,1,8.05,US,1619872454
Dawlatabad,36.4141,64.9053,83.34,26,99,11.16,AF,1619872462
Sola,-13.8833,167.55,78.3,78,100,15.46,VU,1619872563
Cullera,39.1667,-0.25,75.99,36,21,7.0,ES,1619872564
Naze,28.3667,129.4833,64.72,68,100,11.77,JP,1619872564
Waipawa,-41.4122,175.5153,50.0,81,75,2.3,NZ,1619872564
Aykhal,66.0,111.5,32.07,97,100,8.34,RU,1619872394
Araguaína,-7.1911,-48.2072,81.19,75,21,6.06,BR,1619872565
Abhā,18.2164,42.5053,77.0,43,75,4.61,SA,1619872565
Santa Cruz de la Sierra,-17.8,-63.1667,69.8,73,0,9.22,BO,1619872428
Sur,22.5667,59.5289,88.77,44,62,17.11,OM,1619872565
Oranjemund,-28.55,16.4333,80.89,27,0,11.63,NA,1619872566
Brae,60.3964,-1.353,44.6,65,40,4.61,GB,1619872566
Pacific Grove,36.6177,-121.9166,51.01,96,100,4.45,US,1619872566
Santa Maria,-29.6842,-53.8069,68.0,64,0,5.75,BR,1619872567
Kutum,14.2,24.6667,94.17,7,6,13.47,SD,1619872567
Tsimmerbude,54.675,20.1347,51.8,46,0,11.18,RU,1619872567
Santa Cruz de La Palma,28.6835,-17.7642,71.6,53,75,9.22,ES,1619872568
Saint Andrews,34.0454,-81.1293,61.0,72,20,9.82,US,1619872568
Kaeo,-35.1,173.7833,55.0,93,30,3.0,NZ,1619872568
Jacareacanga,-6.2222,-57.7528,78.17,88,100,2.44,BR,1619872568
Denpasar,-8.65,115.2167,80.6,89,20,6.91,ID,1619872569
Rosetta,31.4044,30.4164,93.2,14,0,10.36,EG,1619872569
Pochutla,15.7432,-96.4661,77.0,78,40,3.29,MX,1619872569
Nizhnekamsk,55.6366,51.8245,59.0,51,75,29.08,RU,1619872570
Omboué,-1.5746,9.2618,83.21,73,100,4.81,GA,1619872570
Sitka,57.0531,-135.33,44.6,81,75,6.91,US,1619872570
Santa Cruz,30.4202,-9.5982,73.4,38,0,8.05,MA,1619872571
Bongandanga,1.5,21.05,83.37,57,93,3.09,CD,1619872571
Morro Bay,35.3658,-120.8499,53.01,94,100,5.37,US,1619872571
Usinsk,65.9939,57.5281,35.74,85,100,20.49,RU,1619872572
Çerkezköy,41.285,28.0003,80.6,44,0,9.22,TR,1619872572
Oyem,1.5995,11.5793,84.2,65,75,2.26,GA,1619872572
Bilibino,68.0546,166.4372,-3.03,91,25,5.93,RU,1619872447
Zyryanka,65.75,150.85,24.03,97,95,2.93,RU,1619872573
Tak,16.5833,98.8333,89.6,51,20,9.22,TH,1619872573
Kerema,-7.9631,145.7785,77.95,86,66,6.73,PG,1619872573
Upata,8.0086,-62.3989,77.0,89,41,1.99,VE,1619872520
Meulaboh,4.1363,96.1285,81.52,77,99,1.92,ID,1619872574
Polyarny,69.1989,33.4478,37.4,25,0,6.71,RU,1619872392
Nantucket,41.2835,-70.0995,46.4,76,20,19.57,US,1619872476
Erenhot,43.6475,111.9767,50.5,20,100,9.37,CN,1619872383
Morehead,37.2711,-87.1764,51.01,76,1,6.98,US,1619872390
Kamenka,51.3223,42.7678,64.0,71,73,9.91,RU,1619872574
Noshiro,40.2039,140.0242,51.8,82,75,9.22,JP,1619872575
Alta Floresta,-9.8756,-56.0861,77.38,83,74,3.56,BR,1619872575
Sorsk,54.0033,90.2467,42.06,67,93,4.94,RU,1619872575
Arroyo de la Encomienda,41.6096,-4.7969,53.01,61,75,2.3,ES,1619872575
Jiutai,44.1525,125.8328,46.4,61,0,2.24,CN,1619872576
Venice,27.0998,-82.4543,73.99,94,40,6.71,US,1619872549
Kalmunai,7.4167,81.8167,83.43,75,90,10.74,LK,1619872576
Rabak,13.1809,32.74,103.42,14,96,2.46,SD,1619872576
Manggar,-2.8833,108.2667,82.87,75,25,6.29,ID,1619872577
Brezovo,42.35,25.0833,82.0,44,75,4.61,BG,1619872577
Homer,59.6425,-151.5483,35.01,86,1,3.44,US,1619872577
Bam,29.106,58.357,70.43,49,99,9.37,IR,1619872578
Half Moon Bay,37.4636,-122.4286,53.6,93,90,6.91,US,1619872395
Byron Bay,-28.65,153.6167,69.8,73,75,11.5,AU,1619872578
College,64.8569,-147.8028,30.2,55,90,2.44,US,1619872579
Acurenam,1.0322,10.6488,82.38,70,100,2.51,GQ,1619872579
Tsiroanomandidy,-18.7667,46.0333,80.17,58,100,4.29,MG,1619872579
Kati,12.7441,-8.0726,84.2,61,20,3.44,ML,1619872579
Moa,20.6569,-74.9403,80.17,64,7,7.09,CU,1619872580
Melo,-32.3667,-54.1833,64.96,68,3,4.76,UY,1619872580
Waitati,-45.75,170.5667,48.0,82,2,3.0,NZ,1619872580
Jinji,23.2281,110.8261,80.1,72,75,3.51,CN,1619872581
Port Keats,-14.25,129.55,77.18,62,0,4.81,AU,1619872581
Terrace,54.5163,-128.6035,41.0,93,90,16.11,CA,1619872582
Sheltozero,61.3667,35.3667,37.33,60,100,11.52,RU,1619872582
Rovnoye,50.7765,46.0509,59.49,58,100,12.24,RU,1619872582
Markova,48.6758,24.4138,64.4,72,75,4.47,UA,1619872583
Alexandria,31.2156,29.9553,93.2,14,0,10.36,EG,1619872383
Mahibadhoo,3.7833,72.9667,84.36,63,11,3.2,MV,1619872498
Sept-Îles,50.2001,-66.3821,48.0,61,90,12.66,CA,1619872502
Taksimo,56.3444,114.8794,38.16,71,91,4.07,RU,1619872584
Puerto Maldonado,-12.6,-69.1833,73.94,66,5,1.39,PE,1619872585
Bilma,18.6853,12.9164,104.77,2,5,12.66,NE,1619872434
Port Hardy,50.6996,-127.4199,44.6,100,90,6.91,CA,1619872573
Morant Bay,17.8815,-76.4093,80.6,69,20,5.75,JM,1619872458
Rosa Zarate,0.3333,-79.4667,74.26,92,98,3.71,EC,1619872586
Buchanan,5.8808,-10.0467,89.6,66,75,4.61,LR,1619872587
Faya,18.3851,42.4509,77.0,43,75,4.61,SA,1619872416
Lima,-12.0432,-77.0282,66.0,94,40,1.14,PE,1619872439
Pilar,-9.5972,-35.9567,82.4,74,75,11.5,BR,1619872504
Plettenberg Bay,-34.0527,23.3716,63.54,58,0,7.23,ZA,1619872587
Lompoc,34.6391,-120.4579,48.2,100,90,8.05,US,1619872183
Sikeston,36.8767,-89.5879,57.2,82,1,4.61,US,1619872588
Wittmund,53.5667,7.7833,50.0,62,85,14.97,DE,1619872588
Sinnamary,5.3833,-52.95,77.72,86,100,5.14,GF,1619872588
Turbat,26.0023,63.044,92.73,24,8,17.98,PK,1619872589
Bima,-8.4667,118.7167,76.33,91,28,2.35,ID,1619872589
Hamilton,39.1834,-84.5333,45.0,70,20,3.44,US,1619872349
Narasannapeta,18.4167,84.05,82.78,73,23,10.27,IN,1619872589
Panguna,-6.3164,155.4848,68.09,93,34,1.39,PG,1619872590
Arrondissement de Saint-Gaudens,43.0833,0.6667,54.0,93,90,10.36,FR,1619872590
Dubai,25.2582,55.3047,91.4,43,0,14.97,AE,1619872538
Mayo,38.8876,-76.5119,51.01,40,1,9.22,US,1619872423
Phichit,16.25,100.4167,89.01,84,20,1.14,TH,1619872591
Santa Rosa,14.3122,121.1114,86.0,70,20,6.91,PH,1619872591
Nelson Bay,-32.7167,152.15,62.6,88,0,4.61,AU,1619872591
Deputatsky,69.3,139.9,19.94,98,100,2.71,RU,1619872437
Tiznit Province,29.5833,-9.5,67.68,36,100,9.93,MA,1619872592
Boguchany,58.3814,97.4531,37.76,91,16,2.35,RU,1619872336
Lucea,18.451,-78.1736,82.4,74,20,2.3,JM,1619872592
Shīeli,44.1667,66.75,71.11,17,100,22.26,KZ,1619872451
Gao,16.6362,1.637,106.77,7,3,14.0,ML,1619872592
Paamiut,61.994,-49.6678,38.43,62,9,1.83,GL,1619872593
San Antonio,29.4241,-98.4936,66.99,94,90,9.22,US,1619872502
Betūl,21.9153,77.8961,78.19,42,100,10.8,IN,1619872593
Nahavand,34.1885,48.377,67.35,34,82,7.0,IR,1619872593
Vila,42.0304,-8.1588,55.0,53,91,4.0,PT,1619872594
Palu,-0.8917,119.8707,75.87,95,100,1.43,ID,1619872594
Vanavara,60.34,102.2797,32.74,94,9,3.87,RU,1619872594
Hwange,-18.3693,26.5019,89.71,31,60,4.34,ZW,1619872595
Atima,14.9333,-88.4833,64.4,94,40,1.16,HN,1619872595
Yangi Marg`ilon,40.4272,71.7189,77.0,36,100,2.3,UZ,1619872431
George,-33.963,22.4617,66.2,52,0,4.61,ZA,1619872595
Vestmanna,62.1564,-7.1664,39.2,65,75,8.05,FO,1619872596
Bathsheba,13.2167,-59.5167,80.6,61,40,14.97,BB,1619872450
Palora,-1.7,-77.9333,64.4,88,90,4.61,EC,1619872596
Bellary,15.15,76.9333,97.75,15,1,11.74,IN,1619872596
Shimoda,34.6667,138.95,61.0,94,75,9.22,JP,1619872597
Alofi,-19.0595,-169.9187,75.2,100,37,1.14,NU,1619872597
Bara,10.3744,10.7288,100.4,30,20,5.75,NG,1619872597
Simao,22.7886,100.9748,63.36,95,86,3.11,CN,1619872598
Daru,-9.0763,143.2092,78.96,84,7,13.22,PG,1619872465
Bozeman,45.6796,-111.0386,48.99,65,1,1.92,US,1619872524
Chabahar,25.2919,60.643,84.96,61,0,13.78,IR,1619872598
Dolisie,-4.1997,12.6739,79.23,78,100,4.23,CG,1619872598
Rørvik,64.8621,11.2373,39.29,59,47,7.43,NO,1619872599
Lashio,22.9333,97.75,76.24,51,0,1.97,MM,1619872599
San Francisco del Mar Viejo,16.2333,-94.65,81.82,72,96,2.04,MX,1619872599
Tilichiki,60.4667,166.1,9.21,90,7,9.89,RU,1619872600
Faanui,-16.4833,-151.75,80.46,70,14,5.95,PF,1619872398
St. George's,12.0564,-61.7485,82.4,74,75,12.66,GD,1619872600
Hot Springs,34.5037,-93.0552,53.6,87,1,1.86,US,1619872600
Anadyr,64.75,177.4833,21.2,93,75,2.24,RU,1619872449
Victor Harbor,-35.5667,138.6167,66.99,67,51,1.99,AU,1619872601
Mount Isa,-20.7333,139.5,73.4,35,75,5.75,AU,1619872601
Teknāf,20.8624,92.3058,82.26,75,8,8.99,BD,1619872601
Shubarkuduk,49.1447,56.4872,68.92,26,99,12.93,KZ,1619872444
Sangmélima,2.9333,11.9833,87.12,52,100,1.14,CM,1619872602
Murray Bridge,-35.1167,139.2667,71.01,46,39,16.62,AU,1619872602
El Tigre,8.8875,-64.2454,78.94,66,48,8.34,VE,1619872602
‘Āhuimanu,21.4447,-157.8378,75.2,78,75,10.36,US,1619872407
Prince Rupert,54.3161,-130.3201,44.6,93,90,6.91,CA,1619872352
Salmās,38.1973,44.7653,55.4,71,75,6.91,IR,1619872603
Praia da Vitória,38.7333,-27.0667,62.6,77,40,17.13,PT,1619872603
Redcliffe,-27.2307,153.0973,64.0,100,75,10.36,AU,1619872604
Moen,69.1304,18.6123,37.4,60,75,2.3,NO,1619872604
Inongo,-1.95,18.2667,79.27,70,95,3.44,CD,1619872604
Mountrath,52.9989,-7.4728,53.01,52,84,3.0,IE,1619872605
Meadow Lake,34.8014,-106.5436,51.01,57,1,4.61,US,1619872605
Assiut,27.181,31.1837,100.4,15,0,14.97,EG,1619872605
Mandalgovi,45.7625,106.2708,51.3,25,1,25.12,MN,1619872606
Bodden Town,19.2833,-81.25,82.99,78,20,4.61,KY,1619872606
Saint-Louis,16.3333,-15.0,93.2,27,0,2.3,SN,1619872606
Poltava,49.5937,34.5407,69.31,43,7,10.4,UA,1619872606
San Cristobal,7.7669,-72.225,73.4,100,40,2.3,VE,1619872607
Myitkyina,25.3833,97.4,82.36,47,38,2.62,MM,1619872607
Wanaka,-44.7,169.15,43.48,69,3,2.21,NZ,1619872607
Emirdağ,39.0197,31.15,79.61,22,11,10.27,TR,1619872608
Sines Municipality,37.9562,-8.8698,61.0,56,98,10.0,PT,1619872608
Alma,48.5501,-71.6491,32.0,64,0,17.27,CA,1619872400
Vardø,70.3705,31.1107,33.8,80,40,6.91,NO,1619872608
Mehamn,71.0357,27.8492,34.54,74,88,16.51,NO,1619872609
Kavaratti,10.5669,72.642,85.68,67,6,2.98,IN,1619872609
Paraíso,9.8383,-83.8656,68.0,88,0,3.44,CR,1619872609
Alice Springs,-23.7,133.8833,62.6,39,46,3.44,AU,1619872610
Nikolayevsk-on-Amur,53.1406,140.73,29.95,97,100,3.11,RU,1619872610
Mocuba,-16.8392,36.9856,82.29,73,57,3.29,MZ,1619872610
Parry Sound,45.3501,-80.033,34.0,69,100,5.68,CA,1619872586
Coahuayana Viejo,18.7333,-103.6833,69.8,73,40,2.95,MX,1619872611
São Félix do Xingu,-6.6447,-51.995,82.83,67,54,2.13,BR,1619872611
Bukene,-4.2333,32.8833,78.67,60,100,2.95,TZ,1619872611
Koumac,-20.5667,164.2833,72.48,78,92,4.85,NC,1619872612
Wembley,-31.9333,115.8,60.01,67,0,6.91,AU,1619872612
Rafaela,-31.2503,-61.4867,66.99,55,0,4.0,AR,1619872612
Sittwe,20.15,92.9,83.79,70,0,8.72,MM,1619872613
Makakilo City,21.3469,-158.0858,75.2,88,75,3.44,US,1619872613
São Gabriel da Cachoeira,-0.1303,-67.0892,75.2,94,75,3.78,BR,1619872613
Sydney,-33.8679,151.2073,66.2,88,20,8.05,AU,1619872444
Port-Gentil,-0.7193,8.7815,89.6,62,40,9.22,GA,1619872344
Gīdam,18.9833,81.4,89.51,34,87,7.74,IN,1619872614
Departamento de Maldonado,-34.6667,-54.9167,66.99,88,0,9.22,UY,1619872614
Pitimbu,-7.4706,-34.8086,82.4,78,75,9.22,BR,1619872614
Klaksvík,62.2266,-6.589,39.2,65,75,8.05,FO,1619872457
Cap Malheureux,-19.9842,57.6142,81.0,80,61,3.0,MU,1619872615
Vanimo,-2.6741,141.3028,78.8,86,100,3.27,PG,1619872615
Dali,25.7,100.1833,64.85,54,56,2.51,CN,1619872616
Sisimiut,66.9395,-53.6735,38.3,69,34,5.84,GL,1619872616
La Santisima Trinidad,-14.8333,-64.9,69.8,88,45,2.3,BO,1619872616
Akşehir,38.3575,31.4164,78.37,23,48,8.32,TR,1619872616
Hienghène,-20.6833,164.9333,71.31,86,68,12.19,NC,1619872617
Inhambane,-23.865,35.3833,80.6,61,40,16.11,MZ,1619872617
Cabo San Lucas,22.8909,-109.9124,75.2,35,1,11.5,MX,1619872234
Malbork,54.0359,19.0266,55.0,55,98,7.27,PL,1619872618
Grand-Santi,4.25,-54.3833,76.84,88,100,2.19,GF,1619872618
Chapais,49.7834,-74.8492,24.8,54,75,11.5,CA,1619872445
Yangjiang,21.85,111.9667,76.35,87,100,4.18,CN,1619872618
Cooma,-36.2333,149.1333,44.6,100,100,4.61,AU,1619872619
Dukat,62.55,155.55,18.77,99,100,0.49,RU,1619872619
Calamar,10.2511,-74.9146,79.65,73,100,4.16,CO,1619872619
Dauphin,51.1494,-100.0502,50.0,62,75,8.05,CA,1619872352
Bobo-Dioulasso,11.1771,-4.2979,93.2,40,0,4.61,BF,1619872620
Garachiné,8.0647,-78.3628,78.93,80,75,2.42,PA,1619872620
Lakshmeshwar,15.1333,75.4667,91.09,30,57,11.61,IN,1619872620
Vostok,46.4856,135.8833,35.87,70,0,2.08,RU,1619872621
Mildura,-34.2,142.15,64.0,48,46,3.44,AU,1619872374
Nong Kung Si,16.65,103.3,81.0,99,88,5.32,TH,1619872621
Banjar,-8.19,114.9675,80.6,89,20,6.91,ID,1619872622
Tautira,-17.7333,-149.15,80.01,78,75,9.22,PF,1619872622
Tezu,27.9167,96.1667,82.33,44,37,3.11,IN,1619872622
Whitehorse,60.7161,-135.0538,32.0,74,75,2.95,CA,1619872623
Balkanabat,39.5108,54.3671,81.32,31,100,15.32,TM,1619872388
Peniche,39.3558,-9.3811,62.01,62,100,8.01,PT,1619872623
Manavgat,36.7867,31.4431,91.4,22,0,10.36,TR,1619872623
Ikornnes,62.3873,6.557,45.0,57,74,5.99,NO,1619872624
Walvis Bay,-22.9575,14.5053,71.6,49,0,8.05,NA,1619872416
